idn	name	lat	lon
999993488	Carlow$gLandkreis Nordwestmecklenburg	53.766669	10.933329
999975978	Lockwitz	50.9874	13.806789
999936107	Eliasbrunn	50.496479	11.601089
999762753	Oebisfelde-Weferlingen-Rätzlingen	52.40147	11.11355
999676628	Rehfelde	52.516669	13.9
999467689	Warta Bolesławiecka	51.23151	15.667709
999277545	Fischerbach	48.31667	8.116669
998516317	Pinnow$gLandkreis Parchim	53.6	11.55
998397334	Dötlingen-Neerstedt	52.972799	8.40362
997821086	Saint John's$gNewfoundland	47.56494	-52.70931
99750644X	Naundorf$gOschatz	51.25	13.116666
997293497	Eslohe-Wenholthausen	51.28513	8.18196
997130199	Marsberg-Westheim	51.49578	8.909259
995959986	Lützow	53.649999	11.183329
995859752	Schönberg$gLandkreis Zwickau	50.866666	12.5
995816395	Pottschach	47.69856	16.007249
995657084	Kalt$gLandkreis Mayen-Koblenz	50.26729	7.39466
994664842	Berglen-Oppelsbohm	48.861409	9.46953
993758290	Beloit, Wis.	42.50835	-89.031779
993576966	Chapdeuil	45.342149	0.47544
993400876	Goma	-1.67409	29.228449
99335274X	Springstille	50.687222	10.528055
992729173	Prag-Strahov	49.853259	12.954769
992689155	Letschin- Groß Neuendorf	52.700519	14.408049
992346371	Daubitz	51.3967	14.830289
992346215	Leuba	51.04249	14.945959
992123046	Oßling	51.35999	14.16567
992054494	Hayward, Calif.	37.668819	-122.080799
992029201	Quincy, Mass.	42.252777	-71.002222
991662989	Uppingham	52.58803	-0.72272
990878031	Folsom, Calif.	38.677959	-121.17606
990841707	Rietz-Neuendorf	52.2275	14.174444
990816753	La Plaine-sur-Mer	47.136189	-2.191819
990710092	Wietzen	52.71667	9.08333
990636860	Birkenbeul	50.73333	7.61667
990599914	Stebach	50.516669	7.65
99043382X	Wallmow	53.342509	14.0861
990153282	Neitersen	50.683329	7.56667
990044971	Victoria$gOntario	49.25014	-84.49983
989304205	Loštice	49.7447	16.92892
988997665	Wildschönau-Auffach	47.399999	12.033329
988754754	Nienwohld	53.78694	10.19444
98828135X	Sohland a. Rotstein	51.116388	14.783611
987866907	Illerich	50.2	7.183329
987622102	Köln-Ostheim	50.93117	7.04412
987510061	Monte Carlo	43.74965	7.437009
987340719	Mühlingen	47.91667	9.016669
987263625	Strakonitz	49.261409	13.902369
98710957X	Meffersdorf	50.940277	15.299444
986874361	Gelbensande	54.202719	12.301679
986870102	Groß Munzel	52.36554	9.478279
986870021	Schweinbach$gLeutenberg	50.565289	11.40577
986331260	Berthelsdorf$gLandkreis Görlitz	51.0275	14.756666
986263834	Marlborough	51.420619	-1.72751
986131938	Schweiburg	53.399999	8.283329
986085480	Angelhausen	50.82591	10.96883
986084921	Rhoda$gErfurt	50.931589	11.012829
986084808	Möbisburg	50.921849	10.992119
986048623	Sundhausen$gGotha	50.929166	10.670555
985898143	Meudt	50.5	7.9
985799188	Mosjøen	65.835989	13.190759
985704705	Königsau	49.85	7.483329
985676558	Rapperswil-Jona	47.2325	8.856388
985664061	Jesuborn	50.658079	11.022009
985663847	Kleinwolschendorf	50.649059	11.948069
985663774	Wahlwinkel	50.900629	10.60072
98533049X	Danstedt	51.911666	10.886111
985268263	Artern-Voigtstedt	51.38333	11.31667
985265035	Rastenberg-Bachra	51.197609	11.360089
985112832	Dessau-Roßlau	51.843888	12.247222
984760563	Neuenhof$gEisenach	50.996349	10.21362
98451970X	Frauenrain	47.740609	11.309189
984472827	Gumperda	50.80957	11.523799
984428143	Töttelstädt	51.008169	10.88446
983796890	Zeulenroda-Triebes	50.650277	11.983611
983746214	Pulsen	51.38819	13.44425
983671710	Celle Ligure	44.345089	8.546849
983559686	Erlinsbach$gKanton Solothurn	47.210709	7.52048
983512922	Niederrimsingen$gBreisach, Rhein	47.986319	7.67027
983340188	Wohltorf	53.516669	10.283329
983062315	Paderborn-Elsen	51.71905	8.75439
982848390	Agram	45.814439	15.97798
982837011	Klockenhagen$gRibnitz-Damgarten	54.24201	12.36151
982836864	Schossin	53.549999	11.21667
981819133	Illeben	51.08171	10.677329
981704026	Llanelli	51.68195	-4.161909
981662048	Dresden-Weixdorf	51.148069	13.79832
98152995X	Reinsdorf$gGreiz	50.639166	12.237777
981528732	Sömmerda-Schillingstedt	51.23333	11.199999
981493866	Nieheim-Holzhausen	51.804989	9.11302
981424546	Charleston, Ill.	39.49615	-88.17615
981360106	Frankenroda	51.1	10.283329
981356761	Göllnitz$gLandkreis Altenburger Land	50.95	12.31667
980749034	Saarbrücken-Klarenthal	49.23	6.894444
980748852	Löbnitz$gLandkreis Nordsachsen	51.592379	12.463469
980545064	Dillingen-Pachten	49.356189	6.71213
980514126	Going	47.51332	12.33164
980429226	Grünbach$gVogtlandkreis	50.44995	12.36186
980262860	Burow	53.783329	13.266669
980259479	Drebach	50.66667	13.033329
980172934	Schwielowsee-Ferch	52.309789	12.930049
980142997	Crostwitz	51.23333	14.25
980129958	Leinefelde-Worbis	51.378888	10.333333
979873053	Geudertheim	48.72415	7.751879
979866588	Sondershausen-Großberndten	51.358969	10.70104
979769116	Kirchroth-Pondorf	48.95	12.55
979632366	Bibra$gSaale-Holzland-Kreis	50.803611	11.546944
979382629	Waterbury, Conn.	41.558149	-73.0515
979176883	East Saint Louis, Ill.	38.624499	-90.15094
979119812	Holon	32.010277	34.779166
979088437	Argentinien$zOst	-34.0	-64.0
97900733X	Sarre$gAosta	45.71826	7.258
978595556	Uhlstädt-Kirchhasel-Kirchhasel	50.730229	11.39352
978487206	Boppard-Buchenau	50.21412	7.605839
977986764	Assens$gFünen	55.270229	9.900809
977909239	Niedertrebra	51.069722	11.584444
977909158	Kundāpura	13.630069	74.69068
977773329	Ruden$gKärnten	46.658329	14.776389
977711900	Hohenthurn	46.558329	13.66778
977563847	Stedten$gErfurt	50.925555	10.983888
977331458	Nußdorf-Debant	46.833329	12.8
977225437	Palos Heights, Ill.	41.668089	-87.79644
977099318	Romainville	48.885399	2.43482
977098788	Ürzig	49.97943	7.006099
97703075X	Lugoj	45.688609	21.90306
977016625	Eperjes$g1867-1918	48.99839	21.23393
977004953	Oberroßbach$gHaiger	50.7941	8.242229
976725533	Oberharmersbach	48.373579	8.12542
976442264	Vierzehnheiligen$gJena	50.974209	11.53564
976292815	Wulsbüttel	53.31667	8.666669
976173379	Gabersdorf$gSteiermark	46.777219	15.58417
975865846	Schkölen	51.04166	11.8214
975811487	Neppermin	53.93916	14.03761
975782282	Osann-Monzel	49.91667	6.95
975711660	Mitau	56.65	23.712777
975623826	Udupi	13.334669	74.74617
975349074	Zell-Merl	50.04017	7.16889
975224212	Wetteren	51.005259	3.88341
975147145	Pretzschendorf	50.866669	13.533329
974841153	Bartenstein$gSchrozberg	49.35575	9.889379
974247030	Hailuoto	65.009	24.71385
974244449	Dubicko	49.82806	16.962659
974168149	Niederndorf$gHöchstadt	49.567979	10.88565
974102253	Bad Langensalza- Nägelstedt	51.10965	10.709659
974102156	Orlishausen	51.154159	11.20095
974102075	Steinbach-Hallenberg-Viernau	50.66225	10.557779
974046884	Obergangkofen	48.5	12.166669
973885785	Spreetal$gOrt	51.508333	14.400277
973875003	Groß Laasch	53.35	11.55
973726512	Madelungen	51.016944	10.287777
973697253	Sömmerda-Leubingen	51.200969	11.1537
973696982	Hohenkirchen$gLandkreis Gotha	50.85	10.699999
973664517	Sankt Johann- Köppling	47.0	15.23333
973664126	Sieghartskirchen-Kogl	48.227989	15.98957
973663960	Sitzendorf-Roseldorf	48.71667	15.516669
973610107	Calabasas, Calif.	34.15778	-118.638419
973609095	Dobersberg-Merkengersch	48.890569	15.31357
973348445	Retzbach-Mitterretzbach	48.79444	15.98611
97334797X	Waldhausen$gNiederösterreich	48.333329	15.75
973346620	Weitersfelden	48.477299	14.72546
973341017	Wolfsgraben	48.1587	16.120979
973322772	Kirchfidisch	47.16089	16.34851
973300477	Mauren$gBerg, Thurgau	47.583329	9.25
97325341X	Chemnitz-Einsiedel	50.769444	12.973888
973236000	Berlingen	47.673888	9.019722
97313867X	Villasanta	45.607979	9.310349
973119624	Allmenhausen	51.237459	10.733719
973086823	Talca	-35.4264	-71.65542
973070390	Barrow-in-Furness	54.116669	-3.23333
972766413	Römhild-Bedheim	50.38911	10.653299
972699058	Erxleben$gBörde	52.218055	11.242222
972640517	Adelphi, Md.	39.003169	-76.971919
972626158	Bad Traunstein	48.433329	15.099999
972585931	Kremmen	52.76216	13.02515
972556532	Neulengbach-Ollersbach	48.186689	15.843999
972552367	Kilb	48.10101	15.4085
972545964	Hausbrunn	48.616669	16.816669
972493816	Atzgersdorf	48.144959	16.295899
972493794	Ardagger	48.149999	14.83333
972465995	Mosta, Malta	35.90917	14.42556
97245313X	Braunichswalde	50.799999	12.21667
972307087	Vogtei-Langula	51.149999	10.416669
972235108	Sundhagen-Brandshagen	54.239449	13.169169
972141995	Österbybruk	60.2	17.899999
972010513	Ebertsheim	49.56833	8.10861
971944873	Rothselberg	49.549999	7.599999
971848300	Argestorf	52.261009	9.58351
971839069	Struppen	50.933329	14.016669
971737118	Eschmar	50.793179	7.11028
971551316	Unterloquitz	50.584449	11.403399
971511772	Hürben$gKrumbach (Schwaben)	48.241944	10.363333
97130596X	Arnsberg-Herdringen	51.423949	7.962819
97108386X	Gackenbach	50.366669	7.86667
970997957	Leinefelde-Worbis-Breitenholz	51.38539	10.356099
970990685	Krupka	50.684489	13.85815
970862245	Pommern$gLandkreis Cochem-Zell	50.16667	7.28333
970740999	Dautphe	50.85822	8.54335
970714750	Camarillo, Calif.	34.216389	-119.037599
970705212	Dermbach-Neidhartshausen	50.683329	10.13333
970402090	Richmond Hill$gOntario	43.87111	-79.43725
970397941	Uder	51.362222	10.071944
970346441	Getafe	40.305709	-3.73295
970116535	Falkenhagen$gLandkreis Märkisch-Oderland	52.433329	14.31667
970052472	Egglkofen	48.399999	12.449999
969950578	Oberreidenbach	49.7	7.466669
969936176	Spreewaldheide-Laasow	51.944722	14.130277
969931255	Namslau	51.07592	17.72284
969827865	Offleben	52.13886	11.039199
969786700	Reutlingen-Oferdingen	48.548569	9.20869
96977267X	Buttlar	50.75	9.949999
969738390	Regen-March	48.976559	13.068319
969720475	Dingelsdorf	47.739319	9.15582
969713843	Surrey$gBritish Columbia	49.106349	-122.82509
969697457	Gangloffsömmern	51.183329	10.933329
969679793	Barrytown, NY	41.998429	-73.924019
96941997X	Schreiersgrün	50.5247	12.32859
969336101	Dielingen	52.444169	8.345599
969335520	Berghaupten	48.399999	7.983329
969320825	Altweidelbach	49.98333	7.56667
969319584	Stroud	51.75	-2.2
96909681X	Schröding$gKirchberg, Erding	48.403629	12.082869
969095295	Mehring$gLandkreis Trier-Saarburg	49.799999	6.83333
969038208	Fellin	58.363889	25.589999
968863779	Shelter Island, NY	41.06815	-72.338689
968749844	Pöhla	50.511429	12.818889
968681948	Stralau	52.495579	13.470909
968510698	Neuburg-Wattenweiler	48.313929	10.33473
968492495	Heinrichs	50.600119	10.65549
968398537	Kelmis	50.718089	6.01107
968080855	Großbreitenbach-Böhlen	50.6	11.05
968080766	Langenwolschendorf	50.63333	11.96667
968061338	Windischleuba	51.033329	12.48333
967982006	Hähnichen	51.3654	14.860979
967864054	Kodiak, Alas.	57.789999	-152.407219
967853796	Koblenz-Pfaffendorf	50.34197	7.61165
967853281	Koblenz-Horchheim	50.353569	7.578839
967820073	Liebenstein	50.766666	10.85
967684528	Donezk$gUkraine	49.0	32.0
967611695	Altjeßnitz	51.691519	12.32131
967501695	Bücheloh	50.71385	10.976969
967409012	Emeryville, Calif.	37.831319	-122.28525
967386942	Hahnenbach	49.81667	7.416669
967335019	Südeichsfeld- Lengenfeld unterm Stein	51.21338	10.22169
967308372	Großmaischeid	50.5	7.63333
967296005	Werningshausen	51.13333	11.0
967175895	Eichwalde	52.366669	13.616669
967159520	Kaditz	51.08431	13.684089
967126738	Bebington	53.35	-3.016669
967112559	Langenhain$gWaltershausen	50.90297	10.52147
966457900	Beyharting	47.92566	11.989259
966278143	Altwildungen	51.12642	9.127489
966240235	Scheuerfeld	50.783329	7.83333
966240057	Kottenheim	50.35	7.25
965926141	Kruft	50.38333	7.33333
965868125	Landkern	50.2	7.15
965577759	Löbejün	51.63533	11.901059
965528731	Wittstedt	53.404009	8.67195
965393011	Bloomsbury$gLondon	51.52228	-0.12252
965307611	Eldetal-Wredenhagen	53.29026	12.5172
965263584	Molschleben	51.0	10.783329
965250741	Bickenriede	51.251779	10.34673
965237346	Auel$gRhein-Lahn-Kreis	50.16667	7.76667
964994313	Baumgarten$gBurgenland	47.73895	16.50056
964936399	Marienhausen	50.56667	7.683329
964889617	Wurmberg$gEnzkreis	48.866669	8.81667
964842718	Geratal-Geschwenda	50.73178	10.8254
96483622X	Wolkenburg$gMulde	50.899369	12.67083
964825643	Green Bay, Wis.	44.519159	-88.019829
964821834	Sömmerda-Frohndorf	51.16154	11.186609
964800241	Donji Miholjac	45.760829	18.16722
964764466	Bruschied	49.833329	7.4
964737655	Tonndorf	50.888979	11.203739
96473432X	Neukirchen$gEisenach	51.022159	10.337059
964708221	Bleichstetten	48.46193	9.35656
964705044	Rostock-Gehlsdorf	54.099969	12.12273
964605619	Bauma	47.367222	8.878888
964483262	Vinaders	47.033329	11.46667
964418630	Mengen-Ennetach	48.052379	9.3201
964382407	Günthersleben	50.90261	10.76463
964370484	Weiningen$gKanton Zürich	47.41667	8.666669
964286017	Weyerbusch	50.71667	7.549999
964285975	Sinzig-Westum	50.5369	7.22902
964174383	Neuhäusel$gWesterwaldkreis	50.38333	7.716669
964050781	Pleckhausen	50.6	7.53333
964044765	Oberraden	50.549999	7.53333
964039621	Niederwörresbach	49.766669	7.33333
963972510	Mülsen	50.75	12.56667
963971689	Mieres	43.25	-5.76667
963970704	Bühlau$gDresden	51.062222	13.85
963968246	Wien-Strebersdorf	48.299999	16.38333
963900072	Weyhers	50.487819	9.800319
963784412	Melsbach	50.48333	7.483329
963711547	Dreisbach	50.616669	7.933329
963691465	Neuwied-Irlich	50.446049	7.442459
963659383	Altkalen	53.898879	12.739589
963634372	Reichenau$gLandkreis Zittau	50.90747	14.95634
963599542	Sittensen	53.27615	9.504289
963557262	Karlsruhe-Daxlanden	49.004444	8.331666
963552759	Kristiansund	63.11045	7.727949
963446800	Hennweiler	49.81667	7.433329
963446673	Bad Neuenahr- Ahrweiler-Heimersheim	50.542777	7.177222
963404296	Lesachtal-Liesing	46.692779	12.818609
963401831	Hatting	47.283329	11.166669
963290967	Güllesheim	50.597839	7.52855
963288083	Schwörstadt	47.593139	7.8784
963158201	Leonberg-Gebersheim	48.812519	8.97901
963123521	Morondava	-20.28394	44.31765
963110012	Bingen-Kempten	49.967289	7.93702
963048090	Meerbusch-Osterath	51.26928	6.617359
962920673	Etzbach	50.783329	7.683329
962834262	Zepernick	52.650869	13.54091
962832529	Oedingen$gLennestadt	51.17524	8.12218
962779687	Bad Kreuznach- Winzenheim	49.87022	7.86683
962480517	Bodensee$gOrt	51.606111	10.1325
962393991	Oberpolling	48.70561	13.347459
962361453	Southsea	50.79205	-1.08593
962319406	Uichteritz	51.206388	11.922222
962162922	Toitenwinkel	54.11842	12.13521
962150061	Westhofen$gLandkreis Alzey-Worms	49.704439	8.24806
962118257	Eggesin	53.679729	14.079919
962118206	Seidmar	49.702449	11.20237
962023116	Grünhainichen	50.766669	13.166669
961840498	Merxheim	49.783329	7.56667
961764651	Weitersroda	50.433439	10.77415
96173034X	Bellin	53.708799	12.188819
961703733	Sörth	50.7	7.683329
961697164	Stadecken-Elsheim	49.912219	8.12528
961639334	Pesterwitz	51.027777	13.653055
961636483	Molsdorf	50.9075	10.959166
961540354	Thuisbrunn	49.6869	11.247859
961469838	Berka/Werra	50.939722	10.070833
961421010	Freudenberg-Lintach	49.48333	11.98333
961207876	Andisleben	51.083329	10.916669
961130490	Viadana	44.92947	10.518589
961011297	Overveen	52.391669	4.613889
960997113	Hohenrain$gKanton Luzern	47.16667	8.166669
960996885	Mammern	47.646388	8.915277
960895981	Eggenthal	47.91667	10.516669
960861491	Reigate	51.23758	-0.2078
960840214	Kötzschenbroda	51.103949	13.6294
960839488	Wallenhausen	48.336629	10.21814
960675221	Nicosia	37.74745	14.39727
960583297	Göda	51.183329	14.31667
960577297	Mumbai	19.072777	72.8825
96053864X	Wonsees	49.97614	11.30047
960534652	Ebratshofen	47.61851	10.03536
960469397	Fulham	51.48026	-0.1993
960462082	Malberg$gLandkreis Altenkirchen (Westerwald)	50.716666	7.816666
960387242	Neuenbürg$gWeisendorf	49.637729	10.871919
960205004	Maishofen	47.366669	12.8
960189335	Kindelbrück	51.261666	11.09
960188878	Mittelherwigsdorf	50.91667	14.766669
960021213	Kathedrale Astorga	42.45879	-6.056009
960010602	Kolkwitz	51.75	14.25
959997377	Holzheim$gRhein-Lahn-Kreis	50.35	8.05
959964630	Weinähr	50.31667	7.849999
959932593	Chippenham	51.46	-2.124719
959864679	Meiningen-Walldorf	50.616669	10.38333
95980143X	Herold$gRhein-Lahn-Kreis	50.277439	7.93179
959591788	Maikop	44.607779	40.105829
959588248	Bruchhausen-Vilsen	52.829166	8.990555
95954271X	Zeulenroda-Triebes-Triebes	50.68489	12.020419
959460365	Aitrang	47.81667	10.533329
959460349	Langenaltheim	48.899999	10.933329
959390774	Jemelle	50.16315	5.267089
959384227	Reichenbrand	50.811944	12.829444
959363912	Fürnbach	49.892159	10.634249
959362797	Moers-Rheinkamp-Repelen	51.487229	6.60066
959341102	Liebstadt	50.86417	13.856939
959338047	Flemlingen	49.24278	8.095
959316019	Streufdorf	50.35687	10.68623
959286128	Crivitz	53.57316	11.651939
959281215	West End$gLondon	51.50853	-0.12574
959229000	Niederdieten	50.870959	8.441969
959218319	Drebkau-Leuthen	51.695833	14.246944
959185364	Culver City, Calif.	34.02112	-118.396469
959164197	Long Branch, NJ	40.304279	-73.99236
959048782	Haverford, Pa.	40.01317	-75.294349
95904289X	East Sussex	50.91667	-0.08333
959006532	Sankt Ilgen$gSteiermark	47.549999	15.166669
958995702	Naltschik	43.49806	43.61889
958791198	Schirgiswalde-Kirschau-Crostau	51.083329	14.449999
958759189	Hörsel-Laucha	50.925833	10.543055
95875876X	Bakersfield, Calif.	35.373289	-119.018709
958672148	Biederitz	52.15	11.716666
958671427	Herzhorn	53.783329	9.48333
958658889	Großbothen	51.18784	12.75101
958634432	Midland, Tex.	31.99735	-102.07791
958604177	Nazza	51.1	10.33333
958549443	Gräfenthal$gLandkreis Saalfeld-Rudolstadt	50.52463	11.306779
958548714	Burgtonna	51.06575	10.72418
958506477	Viljandi	58.363889	25.589999
958488363	Karlsbrunn	49.17564	6.80837
958442703	Kensington$gLondon	51.500939	-0.19175
958329028	Harthau$gChemnitz	50.774444	12.9225
958323887	Sülzfeld$gLandkreis Schmalkalden-Meiningen	50.533329	10.366669
958307369	Geckenheim	49.57126	10.23975
958198993	Pittsburg, Kan.	37.410879	-94.704959
958175993	Battaglia Terme	45.285989	11.78151
958157162	Ardagger-Kollmitzberg	48.16667	14.849999
958138915	Wendeburg-Bortfeld	52.29357	10.406109
958088748	Katwijk	51.75	5.870829
958082227	Černivci	48.291388	25.940277
958081468	Chennai	13.087777	80.278333
95808114X	Morchenstern	50.738199	15.246389
957897170	Keilhau	50.713889	11.24918
957896131	Kaltennordheim-Kaltensundheim	50.616669	10.166669
957856032	Westerhüsen	52.064722	11.675833
957807449	Geising	50.76252	13.78561
95775843X	Reinsdorf$gBurgenlandkreis	51.294166	11.600833
957754663	Roitzsch	51.57526	12.26331
957714793	Sint-Walburgiskerk Zutphen	52.13833	6.201389
95769007X	Hartmannshof	49.495829	11.549739
957597304	Grahamstown	-33.30422	26.532759
957594224	Marpingen-Alsweiler	49.472169	7.069829
957566743	Tholey-Theley	49.499949	7.024879
957544219	Trulben	49.13333	7.549999
957531915	Asten$gNiederlande	52.5	5.75
957417810	Schloss Schaubeck$gSteinheim, Murr	48.968055	9.276944
957406495	Be̜dzin	50.325833	19.125555
957289243	London-Stanmore	51.616669	-0.31667
957243960	Prescott, Ariz.	34.540019	-112.4685
957240287	Bingen-Büdesheim	50.21667	6.549999
95721331X	Klosterneuburg-Kritzendorf	48.32932	16.30011
957171226	Großdubrau-Klix	51.264444	14.525833
957058268	Vagen	47.874099	11.88446
957049269	Ala$gItalien	42.833329	12.83333
956938280	Großrückerswalde	50.63333	13.116669
956852076	Lippborg	51.66391	8.041769
956807631	Baruth/Mark	52.044679	13.5027
956800181	Bend, Or.	44.058169	-121.315309
95673703X	Niederbobritzsch	50.899166	13.436111
956705006	Ruhmannsfelden	48.983269	12.98347
956695604	Altfraunhofen	48.45	12.166669
956688497	Wörth$gUnterelsass	48.939529	7.74279
956682413	Bad Neuenahr- Ahrweiler- Bad Neuenahr	50.54484	7.13386
956668976	Buckau$gMagdeburg	52.106666	11.640555
956667872	Wanna	53.75	8.8
956632491	Bornich	50.13333	7.76667
956604455	Fulnek	49.71238	17.903189
956557554	Plymouth, NH	43.757019	-71.68813
956556647	Aspach$gLandkreis Gotha	50.953055	10.597777
956510841	Blankenhain$gLandkreis Weimarer Land	50.859929	11.343899
956507379	Hauskirchen- Prinzendorf an der Zaya	48.6	16.720829
956493513	Seehausen am Staffelsee	47.689166	11.184722
956361625	Heslington	53.946359	-1.04919
956284825	Gefäll$gBurkardroth	50.30443	9.98592
956174906	Princeville, Hawaii	22.21758	-159.47888
956155731	Ebenhofen	47.81465	10.62133
956131697	Uhlstädt-Kirchhasel-Uhlstädt	50.7425	11.468888
956127169	Bisamberg	48.333329	16.35
956022766	Dillingen-Steinheim	48.581388	10.495277
955989698	Ringsheim	48.24765	7.778229
955951143	Wittighausen-Unterwittighausen	49.613329	9.838889
955899567	Auleben	51.4264	10.929679
95586576X	Spergau	51.293469	12.022919
955782368	Burkartshain	51.328333	12.803611
955749581	Frankleben	51.311388	11.929166
955743583	Kubschütz-Purschwitz	51.203888	14.525833
955691141	Roggwil$gThurgau	47.583329	9.25
955689899	Eschenbach$gKanton Luzern	47.16667	8.166669
955547121	Sternberg$gLandkreis Ludwigslust-Parchim	53.712222	11.826666
955534534	Pressbaum	48.183329	16.08333
955532388	Koblenz-Güls	50.34496	7.548899
955496365	Thüringen$gVorarlberg	47.2	9.766669
955496357	Fontanella$gVorarlberg	47.25	9.916669
955495563	Dürnbach$gBurgenland	47.263559	16.390309
955494478	Breitenfurt bei Wien	48.13333	16.149999
955486378	Koppl	47.808079	13.155609
955481074	Lans	47.23333	11.449999
955481058	Schlitters	47.366669	11.83333
955480566	Bad Schallerbach	48.22999	13.919249
955480345	Klein St. Paul- Wietersdorf	46.85083	14.53583
955480310	Pernitz	47.89759	15.960219
955464374	Gerasdorf bei Wien	48.294444	16.4675
955459958	Hainfeld$gNiederösterreich	48.0339	15.774139
955455545	Krumpendorf	46.63333	14.21667
955434823	Lichterfelde$gBerlin	52.4333	13.30762
955424933	Raddestorf	52.45	8.96667
955303354	Eppendorf$gHamburg	53.583329	9.96667
95529536X	Scarsdale, NY	41.005099	-73.78458
955245540	Cerdanyola del Vallès	41.491089	2.140789
955234557	Sulgen$gThurgau	47.583329	9.25
955165512	Pampow$gLandkreis Ludwigslust-Parchim	53.568055	11.357777
955013909	Appen	53.649999	9.73333
954984285	Bermatingen-Ahausen	47.72549	9.324299
954982738	Bötzingen	48.076419	7.72485
954938267	Mährisch-Ostrau	49.842489	18.267269
95474425X	Kelowna	49.883069	-119.48568
954703529	Hemhof	47.910009	12.33533
954674936	Waltenhausen	48.190469	10.36457
954649427	Hörsel-Fröttstädt	50.933611	10.573333
954524349	Lassing	47.516669	14.266669
954522605	Creglingen-Freudenbach	49.472979	10.097379
954486757	Grassau-Rottau	47.780999	12.45359
954482905	Schechen- Pfaffenhofen a. Inn	47.92911	12.123929
954482379	Mühlhofen$gUhldingen	47.75	9.266669
954458575	Türnitz	47.93095	15.49295
95445135X	Nünchritz	51.29993	13.38555
954374517	Katzelsdorf	47.780555	16.269722
954344782	Nesse-Apfelstädt-Apfelstädt	50.901569	10.88977
954265580	Mendhausen	50.38333	10.46667
954251423	Teicha$gHalle (Saale)	51.558888	11.954722
954248015	Muskogee, Okla.	35.74788	-95.36969
954201000	Schiefling am Wörthersee	46.933329	14.849999
954158547	Leoni	47.957	11.344839
954156382	Weyhe$gLandkreis Diepholz	52.984722	8.848055
95414743X	Wäschenbeuren	48.759909	9.68735
954147103	Rottenburg-Schwalldorf	48.450009	8.8809
954136403	Rumburk	50.951509	14.55699
954100727	Oakville$gOntario	43.45011	-79.682919
953953661	Münchengosserstädt	51.044166	11.660277
953864847	Wängi$gThurgau	47.583329	9.25
953833194	Seeham	47.96667	13.08333
95382649X	Möckenlohe	48.822899	11.228249
953771016	Littleton, Colo.	39.61332	-105.016649
95375426X	Bad Sauerbrunn	47.774389	16.32841
953598462	Eisental	48.715099	8.166719
953598446	Kuppenheim	48.827939	8.25417
953587568	Rossow	53.474166	14.125277
953555399	Sosa	50.5	12.666669
953550907	Efringen-Kirchen-Egringen	47.665329	7.598119
953371468	Müllheim$gThurgau	47.583329	9.25
953338428	Großröhrsdorf	51.145279	14.01917
953337529	Palling	48.00204	12.637019
953330648	Zeutsch	50.753529	11.503819
953306194	Gingst	54.45	13.25
953296199	Lorca	37.67119	-1.7017
953292274	Kalinowo$gSuwałki	53.874444	22.672222
953265935	Rosario$gArgentinien	-32.94682	-60.639319
953265676	Friesenhagen-Crottorf	50.899999	7.799999
953264238	Dyhernfurt	51.27299	16.708149
953210065	Hamilton$gNeuseeland	-37.783333	175.283333
953208540	Crawley$gWest Sussex	51.11303	-0.18312
95305523X	Marktl	48.25421	12.84417
953051374	Böbingen an der Rems	48.822099	9.91928
953031527	Einselthum	49.65167	8.124719
953031187	Ebernhahn	50.46667	7.76667
953030512	Grabsleben	50.936388	10.835
953025756	Dierdorf	50.546469	7.652709
953023494	Dernau	50.533329	7.049999
952995808	Ralbitz	51.301239	14.24802
952988518	Nussbaumen$gAargau	47.333329	8.166669
952929724	Bad Lauchstädt- Schafstädt	51.381388	11.773055
952883058	Leutenberg	50.56354	11.456189
952866838	Brauneberg	49.91667	6.983329
952844605	Aurolzmünster	48.248339	13.45533
952841916	Bad Colberg- Heldburg	50.274309	10.799559
952836394	Altendiez	50.366669	7.983329
952817063	Horn$gRhein-Hunsrück-Kreis	50.049999	7.53333
952807106	Stattegg	47.13333	15.416669
952746956	Ammerbuch-Pfäffingen	48.525759	8.96429
952586118	Heidenreichstein	48.866669	15.116669
952562316	Schwarzach$gVorarlberg	47.449039	9.76213
952556359	Deggingen	48.597099	9.718909
952464292	Esslingen-Sulzgries	48.739444	9.304722
952427192	Mantes-la-Jolie	48.98333	1.716669
952353741	La Porte, Ind.	40.2	-86.25027
952330113	Preußisch Holland	54.061388	19.659166
952026465	Kuhbach$gLahr, Schwarzwald	48.338239	7.90852
952016516	Greifenberg$gAmmersee	48.070619	11.083489
951971921	Sankt Maximilian$gDüsseldorf	51.221719	6.77616
951881612	Altenweddingen	51.998888	11.529444
951691511	Wilhelmsdorf$gLandkreis Neustadt a.d. Aisch- Bad Windsheim	49.56419	10.737159
951670425	Hohenstein$gOstpreußen	53.583611	20.284444
951650564	Burghaslach	49.73313	10.600699
951623826	Kiel-Neumühlen-Dietrichsdorf	54.335999	10.183989
951594303	Prisečnice	50.466666	13.133333
951588265	Oblast Wolgograd	48.719166	44.501666
951573217	Crossen (Oder)	52.054722	15.098611
951569686	Provinz La Rioja$gSpanien	42.25	-2.5
951561553	Großheirath	50.183329	10.949999
951561278	Tuzla	44.53842	18.66709
951560662	Saal a. d. Donau	48.900833	11.931944
951531360	Reinach$gAargau	47.333329	8.166669
951523341	Miłki$gSuwałki	53.942999	21.883389
95152321X	Holešov	49.333309	17.57832
951438743	Eichenau	48.16667	11.31667
951438123	Obervolkach	49.8731	10.257939
951413783	Berg$gThurgau	47.583329	9.25
951411020	Warrington$gCheshire	53.392539	-2.580239
951402536	Rohrenfels	48.68654	11.15619
951400037	Markersbach$gRaschau-Markersbach	50.53544	12.861489
951387804	Beveren$gOstflandern	51.211869	4.25633
951318403	Mittenwalde$gLandkreis Dahme-Spreewald	52.26	13.539444
951117025	Steinbergkirche	54.75	9.766669
951116045	Satrup	54.7	9.599999
950950645	Limbach$gVogtlandkreis	50.583333	12.25
950927570	Oldenburg-Bloherfelde	53.141111	8.214444
950838489	Goldlauter	50.628549	10.742749
950818453	Wladikawkas	43.03667	44.66778
950789763	Arnsdorf-Wallroda	51.114179	13.9571
950789690	Ilmenau-Frauenwald	50.583329	10.849999
950789542	Ilmenau-Gehren	50.648519	11.004709
950789445	Maulburg	47.646309	7.782099
950660213	Nonnenhorn	47.57386	9.610379
950645273	Essex, Mass.	42.63204	-70.78283
950643076	Notodden	59.559359	9.25853
950635545	Notzingen	48.67076	9.457209
950633879	Easton, Pa.	40.688429	-75.22073
950623326	Framingham, Mass.	42.27926	-71.416169
950606987	Malchin-Remplin	53.75388	12.69705
950579386	Burgsponheim	49.833329	7.716669
950490024	Amelinghausen	53.123969	10.21274
95047567X	Bad Salzungen- Tiefenort	50.833329	10.166669
950447617	Offenberg	48.86195	12.86293
950411450	Burgstädt	50.91333	12.805999
950363030	Gars- Thunau am Kamp	48.583329	15.65
950336815	Spiegelberg	49.040829	9.44444
95027495X	Wingerode	51.399999	10.23333
95026668X	Bockfließ	48.359999	16.603889
950263109	Spartanburg, SC	34.94957	-81.93205
950253596	Oberbettingen	50.283333	6.633333
950212075	Carson City, Nev.	39.1638	-119.767399
950200603	Thannhausen$gLandkreis Günzburg	48.283333	10.469166
950193569	Seregno	45.65238	9.20034
950189472	Vogtlandkreis	50.497222	12.137777
950184187	Rietschen	51.399999	14.783329
950182397	Röfingen	48.424419	10.442679
950179868	Königshain$gLandkreis Görlitz	51.183333	14.866666
950169765	Ypsilanti, Mich.	42.241149	-83.612989
950075795	Piracicaba	-22.72528	-47.649169
949969087	Krugzell	47.79375	10.27616
949967114	Sollentuna	59.42804	17.950929
94996316X	Granville, Ohio	40.06812	-82.519599
949963097	Yellow Springs, Ohio	39.806449	-83.88687
949952362	Gambier, Ohio	40.375619	-82.397099
949933694	Sioux Center, Iowa	43.079709	-96.175579
94992895X	Isola del Liri	41.686219	13.5823
94985915X	Möglingen	48.88741	9.126939
949850926	Koblach	47.33306	9.599999
949841285	Kreuztal-Ferndorf	50.96273	8.01327
94979371X	Dover, NH	43.197859	-70.87367
949793108	Montclair, NJ	40.825929	-74.209029
949791016	Hoboken, NJ	40.743989	-74.032359
949790893	Pennington, NJ	40.32844	-74.790719
949790745	Greenville, NC	35.612659	-77.366349
949790346	Vermillion, SD	42.77944	-96.929209
949759252	Appleton, Wis.	44.261929	-88.415379
949688134	Querum	52.288559	10.56273
949677906	Strathclyde	55.812089	-4.026489
949677132	Manoa, Hawaii	21.33333	-157.8
949653756	Erlbach$gVogtlandkreis	50.31667	12.366669
949651230	Bennigsen	52.239429	9.668789
94965020X	Sausalito, Calif.	37.85909	-122.485249
949646458	Peterborough$gOntario	49.25014	-84.49983
949645079	Herentals	51.176549	4.83248
949644609	Oberndorf$gArnstadt	50.821388	10.975
949641804	Hartenstein$gLandkreis Zwickau	50.662359	12.66966
94960481X	Ketsch	49.36778	8.53111
949604240	An der Schmücke- Oldisleben	51.299999	11.166669
94960335X	Könnern	51.671111	11.770555
949602787	Waldenburg$gLandkreis Zwickau	50.87653	12.599199
949602744	Zwota	50.38333	12.433329
949602256	Neschwitz	51.27056	14.329
949597147	Stegen	47.98333	7.966669
949594822	Wiefelstede	53.25	8.116669
949593842	Habach	47.73333	11.283329
94959220X	Krumbach$gNiederösterreich	47.516669	16.18333
949582379	Grosshartmannsdorf	50.8	13.333333
949570559	Vejle	55.709269	9.5357
949570222	Macon, Ga.	32.84069	-83.6324
949529451	Steglitz$gLandkreis Teltow	52.452979	13.33139
949521000	Loretto$gBurgenland	47.91559	16.5179
949485411	Burghammer	51.475555	14.371388
949484989	Zehren$gDiera-Zehren	51.201666	13.401944
949472891	Greenwich, Conn.	41.02649	-73.62846
949456594	Wettin	51.586039	11.8063
949448672	Escondido, Calif.	33.11921	-117.08642
949442526	Reading, Mass.	42.525649	-71.09533
949416967	Toowoomba$gQueensland	-20.0	145.0
949402303	Muncie, Ind.	40.193379	-85.386359
949253758	Niederschöna	50.966709	13.4191
949237116	Jonesboro, Ark.	35.8423	-90.704279
949232068	Richmond, Calif.	37.93576	-122.34775
949231320	Fullerton, Calif.	33.870289	-117.92534
949231266	Carson, Calif.	33.831409	-118.28202
949231231	Carmel, Calif.	36.555239	-121.923289
949230200	Bridgeport, Conn.	41.16704	-73.20483
949192554	Unterwössen	47.73333	12.46667
949130346	Penzlin	53.503999	13.08407
949126365	Seyðisfjörður	65.26008	-14.00577
949124087	Steindorf am Ossiacher See	46.893059	14.151389
949034649	Steyregg	48.28513	14.369949
949011002	Mauchenheim	49.71806	8.04611
948923121	Ariccia	41.72012	12.675879
948879890	Ottendorf-Okrilla	51.183329	13.83333
948875445	Friesack	52.737639	12.579689
948831871	Hochkirch	51.149999	14.58333
948784822	Brandis	51.33597	12.610239
948780851	Spiegelau	48.91517	13.362289
948737336	Thalheim/Erzgeb.	50.700769	12.849959
948677694	Vordingborg	55.008009	11.910569
948601965	Evansville, Ind.	37.97476	-87.55585
948600055	Friedek	49.683329	18.35
948576375	Nussloch	49.323888	8.695555
948567236	Strössendorf	50.13871	11.22155
948562390	Jänschwalde	51.86066	14.498129
948534907	Mombach$gMainz	50.018888	8.231666
948510862	Lauta	51.466666	14.1
948510447	Lunzenau	50.962679	12.75594
948461144	Smolník	48.729359	20.737719
948425881	Waterville, Me.	44.55201	-69.631709
948424044	Visoko	43.988889	18.178059
948378182	Leipzig-Grünau	51.320833	12.280555
948363886	Wintrich	49.883333	6.95
94836386X	Minderlittgen	50.016666	6.833333
948360461	Tollmingen	54.458329	22.435829
948357037	Brunn am Gebirge	48.106944	16.284444
948345985	Kühndorf	50.616669	10.48333
948336927	Frýdek-Místek	49.683329	18.35
948335416	Sankt Johann im Pongau	47.35	13.2
948333448	Menden-Halingen	51.46034	7.7302
948283289	Zornheim	49.89	8.224719
948278501	Callenberg$gLandkreis Zwickau	50.85	12.63333
948274689	Gartz$gOder	53.208289	14.39226
948238259	Ruhner Berge- Suckow	53.309444	11.970555
94823136X	Trusetal$gOrt	50.783333	10.416666
948221380	Thalgau	47.833329	13.25
948177780	Berezhany	49.45	24.93333
948167351	Hasselfelde	51.690277	10.853611
948163763	Wilhelmsfeld	49.470559	8.75361
948133201	Osek	50.62115	13.69274
948128372	Arnsfeld	50.578569	13.11716
948110406	Weisweil	48.19939	7.67713
948089709	Wittenberg-Piesteritz	51.869444	12.598333
948055197	Treuen	50.54247	12.30339
948044063	Hödingen$gÜberlingen	47.78759	9.129749
948020482	Barmbek	53.577399	10.04235
94800925X	Kayna	50.99414	12.237099
947997407	Gerresheim	51.23333	6.86667
947995420	Ruppertshofen$gOstalbkreis	48.88275	9.81506
94797797X	Carlisle, Pa.	40.201479	-77.188869
947932968	Erlen$gThurgau	47.583329	9.25
947896449	Markersdorf$gLandkreis Görlitz	51.133333	14.883333
947887849	Langenleuba-Niederhain	50.96	12.588611
947798226	Obernigk	51.301369	16.91465
947774181	Gebesee	51.114879	10.934549
947773207	Leonberg-Höfingen	48.8179	9.016859
947718869	Thal$gSankt Gallen	47.478333	9.556666
947718478	Gaspoltshofen	48.143239	13.73643
947709312	Schweina	50.825	10.337777
947709304	Steinbach$gWartburgkreis	50.833055	10.363888
947702032	Zipplingen	48.92271	10.40586
947666818	Topeka, Kan.	39.048329	-95.678039
947570543	Visselhövede	52.98546	9.582649
947566422	Orlamünde	50.774859	11.519289
947555366	Zeiskam	49.232779	8.24722
947546812	Klaus$gVorarlberg	47.25	9.916669
947481486	Fraureuth	50.7	12.349999
947453156	Kreuth- Wildbad Kreuth	47.623939	11.741659
947433325	Hollywood, Fla.	26.011199	-80.14949
947429689	Haidhausen	48.13226	11.59772
947421238	Ischewsk	56.84976	53.204479
947416978	Salem, Or.	44.9429	-123.035099
947399577	Bowling Green, Ky.	36.990319	-86.4436
947362797	Towson, Md.	39.401499	-76.60191
947357416	Manresa	41.72498	1.82656
94734263X	Kirchberg$gLandkreis Zwickau	50.621944	12.524444
947280103	Amt Creuzburg- Mihla	51.083333	10.333333
947241108	Paderborn-Marienloh	51.764339	8.78401
947238700	Puch bei Hallein	47.715359	13.092959
947236929	Stuttgart-Weilimdorf	48.813611	9.111666
947202560	Zwenkau	51.218719	12.33008
947168958	Torquay	50.463839	-3.514339
947142517	Wolfsberg$gKärnten	46.84056	14.84417
947102043	Oberviehbach	48.581679	12.3763
947068546	Chrudim	49.95109	15.795579
947026088	Barbacena$gMinas Gerais	-21.225829	-43.773609
946983038	Olpe-Neuenkleusheim	51.022359	7.915289
946887551	Viersen-Dülken	51.253729	6.33567
946882681	Schönberg$gMecklenburg	53.84441	10.93265
946871035	Burg Stargard	53.49582	13.31122
946868573	Nieder-Olm	49.911659	8.20533
946828970	Sankt Valentin$gKiedrich	50.033329	8.08333
946790051	Ostritz	51.01451	14.93059
946790027	Epfenbach	49.33917	8.90778
946765049	Joschkar-Ola	56.63877	47.890779
946738718	Olinda	-8.008889	-34.85528
946618321	Skövde	58.391179	13.84506
946605300	Goldberg$gLiegnitz	51.126111	15.919722
946586977	Bramberg am Wildkogel	47.266669	12.349999
946565740	Münster$gOberelsass	48.040833	7.133333
946562997	Wörrstadt	49.84861	8.124169
946554196	Kirowohrad	48.513199	32.2597
946547351	Waldbrunn$gLandkreis Würzburg	49.758609	9.80361
946546738	Leutenbach$gRems-Murr-Kreis	48.887909	9.39267
946523185	Büttelborn	49.903329	8.523329
946513856	Plaidt	50.3926	7.392509
946456585	Kervenheim	51.631979	6.2763
946398755	Klein St. Paul	46.836109	14.541389
946352763	Harsleben	51.866669	11.099999
946295743	Saronno	45.62787	9.034639
946288542	Rangendingen	48.38168	8.8894
946259445	Stadtilm	50.775959	11.08262
946254532	Waldböckelheim	49.81667	7.716669
946225095	Ahnatal	51.35	9.383333
946220387	Zörbig	51.62894	12.117399
946211248	Maštov	50.26227	13.280459
946198462	Roosendaal	51.53083	4.465279
946145385	Schwerte-Westhofen	51.42302	7.533059
94609859X	Mildenau	50.6	13.08333
946030073	Greußen	51.229722	10.944166
945973489	Beckingen-Reimsbach	49.4506	6.767509
945924518	Schlettau	50.558819	12.95269
945875851	Nidderau-Heldenbergen	50.236769	8.862249
945875061	Pöndorf	47.99584	13.370359
945856350	Saarwellingen	49.3543	6.80487
945783590	Chiba	35.60472	140.12333
94574725X	Jarmen	53.92385	13.34032
945746660	Celle-Hustedt	52.622639	10.08047
945680899	Lohsa	51.38333	14.4
945670257	Seebarn	49.331359	12.45462
945576617	San Benedetto Po	45.038179	10.93139
945576595	San Benedetto del Tronto	42.945619	13.88157
945576536	Trezzo sull'Adda	45.60298	9.519949
94557651X	Dschunija	33.96972	35.61556
945562977	Lafayette, La.	30.22409	-92.01984
945542674	Grainet	48.799999	13.65
945513526	Halifax$gWest Yorkshire	53.7	-1.583329
94551350X	Nowotscherkassk	47.42018	40.09132
945475101	Engelrod	50.578839	9.26364
945473702	Effelder$gLandkreis Eichsfeld	51.239444	10.247777
945463669	Sankt Georgen$gWestslowakisches Gebiet	48.25216	17.215389
94542132X	Meerane	50.846879	12.464729
945420528	Dartmouth$gNova Scotia	44.67134	-63.57719
945367732	Amstelveen	52.300829	4.863889
945351771	Großbreitenbach	50.583333	11.009444
945325762	Abtenau	47.563729	13.34599
945194196	Schirgiswalde	51.07641	14.42834
945164467	Decatur, Ga.	33.77483	-84.29631
945142005	Lübz	53.462609	12.02917
945019211	Wolgast	54.05275	13.772009
944946917	Jungbunzlau	50.411349	14.90318
944866778	Ohlsdorf$gOberösterreich	47.960729	13.791449
944829856	Bibra$gMeiningen	50.469444	10.438611
944806163	Jelgava	56.65	23.712777
944774741	Bockhorn$gLandkreis Erding	48.314709	11.98694
94477377X	Glan-Münchweiler	49.472222	7.441944
944769942	Gräfendorf	50.122669	9.7405
944756670	Nister$gWesterwaldkreis	50.683329	7.83333
944753051	Falkensee	52.560139	13.0927
944685846	Kölleda	51.187222	11.244722
944685757	Klein Wanzleben	52.07	11.365833
944665403	Sandomierz	50.68265	21.748979
944659284	Neckartenzlingen	48.58981	9.23478
944613691	Whitehaven	54.548969	-3.58412
944609597	Stans$gTirol	47.366669	11.71667
944608310	Karlshorst$gBerlin	52.484166	13.531666
944588050	Carlsfeld	50.434699	12.58704
944564895	Davis, Calif.	38.54491	-121.74052
944562590	Ottignies-Louvain-la-Neuve	50.668289	4.614429
944559824	Sausheim	47.78976	7.37134
944525954	Waco, Tex.	31.54933	-97.14667
94445173X	Berlin-Mahlsdorf	52.509349	13.61373
94444914X	Cairns	-16.92304	145.76625
944353282	Decatur, Ala.	34.60593	-86.983339
944308783	Niederzissen	50.46667	7.233329
944297978	Teutschenthal	51.45	11.8
944295398	Kirschau	51.09317	14.428399
944227104	Pensacola, Fla.	30.421309	-87.216909
944188508	Bø$gTelemark	59.216099	9.6112
944157211	Friedrichsdorf-Burgholzhausen	50.255769	8.676619
944130097	Fortaleza	-3.71722	-38.543059
944129935	Achtrup	54.783329	9.033329
944099734	Oederan	50.860639	13.17164
944093930	Glaucha$gHalle (Saale)	51.478333	11.964722
944077269	Bingerbrück	49.966119	7.88476
944068138	Seewalchen am Attersee	47.95246	13.583819
944067069	Eitelborn	50.366669	7.716669
944029841	Herning	56.139319	8.973779
943991277	Gomel	52.434499	30.9754
94392488X	Herdern$gThurgau	47.583329	9.25
943924839	Steckborn	47.666666	8.983333
943923166	Wichlinghausen	52.09094	8.33515
943920906	Burkhardswalde$gPirna	50.921944	13.857222
943894336	Vitis	48.759639	15.182589
943879930	Wittenberge	53.005429	11.75032
943865522	Kathedrale Namur	50.4669	4.86746
943847087	Chabarowsk	48.48272	135.083789
943830125	Bettwiesen	47.496944	9.028333
943766532	Kirchberg an der Murr	48.942777	9.340833
943764068	Bergatreute	47.85	9.75
943763770	Nettersheim-Marmagen	50.47708	6.57821
94373939X	Münchenbernsdorf	50.821139	11.932259
94371673X	Merenberg	50.507069	8.19194
943686822	Waldlaubersheim	49.933329	7.83333
943667712	Bowling Green, Ohio	41.374769	-83.651319
94366411X	Bisingen	48.310119	8.917379
943622662	Holyoke, Mass.	42.204259	-72.6162
943604060	Potchefstroom	-26.71667	27.1
943597579	Legon	5.65	-0.18333
943591058	Markt Rettenbach- Mussenhausen	47.989139	10.43641
943551625	Croydon	51.383333	-0.1
943477190	Themar	50.504649	10.61536
943477050	Remagen-Oberwinter	50.61641	7.2072
94346630X	Sohland a. d. Spree	51.040833	14.418888
943459672	Burlington$gOntario	43.386209	-79.83713
943443806	Schkeuditz	51.396779	12.22141
943376726	Barleben	52.201929	11.617699
943370701	Langenleuba-Oberhain	50.965555	12.658888
943346797	Raschau$gRaschau-Markersbach	50.531269	12.833119
943346177	Lauter$gSachsen	50.56264	12.735139
943345987	Wernshausen	50.72404	10.35086
94334588X	Absberg	49.144379	10.881009
943342023	Breidenbach	50.88333	8.46667
943337941	Conway, Ark.	35.0887	-92.442099
943337321	Johnson City, Tenn.	36.313439	-82.35347
943336732	Grabfeld-Behrungen	50.410859	10.41474
943333075	Heiningen$gLandkreis Göppingen	48.661769	9.64977
943333024	Eschenbach$gLandkreis Göppingen	48.652639	9.67037
943332028	Eglharting	48.08135	11.86017
943326753	Laufersweiler	49.899999	7.299999
943320739	Sint-Niklaas	51.165089	4.143699
943318521	Frasdorf	47.803759	12.285119
943312213	Aldeburgh	52.152589	1.60124
943304059	Frosinone	41.640019	13.340099
943303966	Gelenau/Erzgeb.	50.71152	12.966659
943303427	Herxheim bei Landau (Pfalz)	49.146111	8.213333
943293561	Halfing	47.95197	12.275249
943290597	Hergolshausen	49.96336	10.155609
943282187	Sennfeld	50.038949	10.259859
94327849X	Cape Girardeau, Mo.	37.30588	-89.51815
94325437X	Sankt Joseph$gBillerbeck-Gerleve	51.943629	7.24617
94323705X	Sankt Jakob$gPfullendorf	47.926099	9.257799
943236274	Sankt Anton$gAugsburg	48.371388	10.898333
943160405	Oñate$gSpanien	40.0	-4.0
943147778	Valparaiso, Ind.	41.473089	-87.061139
943138868	Biarritz	43.480119	-1.55558
943117550	Tondern	54.933059	8.86674
943037824	Lendinara	45.084279	11.59971
943000904	Žacléř	50.66329	15.910629
942988582	Batesville, Ark.	35.769799	-91.640969
942981863	Wurmannsquick	48.35334	12.78603
942893972	Loughborough	52.766669	-1.199999
942876962	Ziesar	52.266159	12.28997
942840607	Katonah, NY	41.25898	-73.68541
942824180	Steinbach$gManitoba	49.52579	-96.68451
942823826	Saint-Michel$gBrüssel	50.850277	4.348611
942773985	Lommatzsch	51.195369	13.309169
942761065	Scunthorpe	53.57905	-0.65437
942728122	Petting	47.91232	12.81512
942719212	Clarksville, Tenn.	36.529769	-87.359449
942678648	Rhaunen	49.85	7.349999
942677366	Salento	40.2486	15.19006
942675622	Haffkrug	54.05225	10.746539
942675584	Schöllnach	48.75412	13.177809
942667514	Bad Belzig	52.14184	12.592719
942665945	Eppendorf$gSachsen	50.799999	13.23333
942664043	Schwerborn	51.03828	11.077959
942604334	Smederevo	44.662779	20.929999
942604040	Ossining, NY	41.162869	-73.861519
942582985	Uelsen	52.5	6.88333
94258256X	Fambach	50.73333	10.366669
942511344	Purkersdorf	48.207689	16.17539
942498429	Karlshuld	48.683329	11.3
942470591	Gijón	43.535555	-5.661388
942463803	Tegelen-Steijl	51.332169	6.119419
942443152	Bad Waldsee- Haisterkirch	47.920589	9.79955
942435397	Kaltennordheim	50.626489	10.15915
942382935	Zolling	48.45	11.766669
94238220X	Edinburg, Tex.	26.301739	-98.16334
942351096	Waldstetten$gOstalbkreis	48.766111	9.821111
942310128	Eglfing	47.733333	11.183333
942296796	Asheville, NC	35.600949	-82.554019
942190300	Otwock	52.105769	21.261289
942133471	Krumstedt	54.06667	9.183329
942088271	Gehrden (b. Hannover)	52.31362	9.600329
942074440	Ritschenhausen	50.516669	10.449999
941918106	Landkreis Görlitz	51.155	14.988333
941907236	Montilla	37.586269	-4.638049
941907228	Pliezhausen	48.559339	9.207489
941881849	Gerbstedt-Friedeburg	51.621111	11.7425
941867676	Witebsk	55.190399	30.204899
941814491	Soldin	52.923819	14.86785
941787044	Malvern, Pa.	40.03622	-75.51381
941786455	Vetschau-Raddusch	51.818109	14.0403
941783057	Naples, Fla.	26.14204	-81.794809
941779807	Annaburg	51.73257	13.045859
941756521	Joliette	46.01677	-73.44915
941747212	São Leopoldo	-29.760277	-51.147222
941721035	Ufa	54.743055	55.967777
94170579X	Neuwied- Feldkirchen (Rhein)	50.45244	7.42562
941683702	Bad Tennstedt	51.15447	10.83873
941585336	Flammersfeld	50.63333	7.549999
941540081	Beeskow	52.17291	14.245969
94150056X	Bodenheim	49.935279	8.32
941472892	Bochum-Hamme	51.49289	7.19172
941470210	Ober-Olm	49.93722	8.18889
941462420	Triptis	50.735555	11.870277
941430375	Pfalzburg	48.767519	7.256949
941424685	Geratal-Geraberg	50.73333	10.849999
941392821	San Luis Obispo, Calif.	35.28275	-120.65962
941374238	Rheinbrohl	50.5	7.33333
941373614	Hofbieber	50.586289	9.83534
941357538	Pritzwalk	53.14945	12.174049
941334759	Bronxville, NY	40.93815	-73.83208
941328961	Krailling	48.1	11.4
941328910	Teuchern	51.120833	12.024166
941299775	Weilheim$gLandkreis Waldshut	47.666666	8.233333
941228665	Mensengesäß	50.07068	9.168309
94122855X	Enheim	49.63262	10.13746
941159884	Seelow	52.53392	14.38128
941115194	Großräschen	51.5876	14.01093
941115186	Naunhof	51.2777	12.588269
941114260	Berne$gLandkreis Wesermarsch	53.181388	8.482222
941045064	Oberglogau	50.353549	17.864049
941018741	Uhyst	51.364444	14.505833
941003698	Möckern	52.140833	11.951944
940914158	Portofino	44.303489	9.209419
940830965	Guntramsdorf	48.046869	16.313839
940808641	Sommerhausen	49.703609	10.026049
940806525	Zella-Mehlis-Benshausen	50.649999	10.599999
940743914	Sömmerda	51.15914	11.11524
940733951	Landsberg$gSaalekreis	51.526944	12.160833
94073267X	Fischingen	47.583329	9.25
940605031	Żary	51.641944	15.137222
940583755	Limbach$gLandkreis Chemnitz	50.853333	12.775
940583739	Limbach-Oberfrohna	50.85882	12.761649
940581973	Rovaniemi	66.5	25.71667
940580365	Hyvinkää	60.63333	24.866669
940573946	Telemark	59.216099	9.6112
940572583	Mondsee	47.856479	13.34908
940542943	Rötz	49.343055	12.529444
940539578	Täby	59.443899	18.068719
940465442	Füllinsdorf	47.506666	7.731111
940431157	Münster-Wolbeck	51.918599	7.7412
940426420	Neukirchen/Erzgeb.	50.779444	12.8675
940420376	Lisieux	49.146599	0.22925
940396084	Plagwitz$gLeipzig	51.319166	12.326944
940392305	Dresden-Briesnitz	51.064329	13.670329
940349426	Oberoderwitz	50.97538	14.6981
94034940X	Pulsnitz	51.183199	14.01416
940342766	Gratkorn	47.13333	15.349999
940333031	Weixdorf	51.148069	13.79832
940330636	Zschorlau	50.56667	12.65
940325292	Grevesmühlen	53.86336	11.191599
94028393X	Gierstädt	51.049999	10.83333
940281414	Lubań	51.120139	15.287679
940256630	Herrnstadt	51.56224	16.69059
940248921	Stenn	50.676111	12.431111
940225786	Trebur	49.931109	8.416109
940224658	Niederoderwitz	50.94957	14.73526
940111675	Norrtälje	59.757989	18.704959
940111411	Denpasar	-8.65	115.216669
940099802	Wolmirstedt	52.248559	11.62945
940083477	Hinterbrühl	48.086109	16.24809
940073919	Birenbach	48.74732	9.661149
940029812	Mar del Plata	-38.002279	-57.55754
940011220	Schloss Elmau$gElmau	47.45998	11.17985
940010178	Schaafheim	49.924169	9.009439
199215502	Sankt Barbara$gStolberg (Rhld.)	50.773679	6.22595
1219466271	Homosassa, Fla.	28.781111	-82.615
1205427295	Patriasdorf	46.839444	12.762777
1205044388	Frankenhain$gIlm-Kreis	50.75	10.783329
120504177X	Gräfenroda	50.75	10.8
1203414595	Altersbach$gSteinbach-Hallenberg	50.7	10.533329
1202573797	Weberstedt	51.1	10.5
1197577394	Wölfis	50.81667	10.783329
1195726953	Olomouc	49.59552	17.25175
1192058453	Hirschberg$gWarstein	51.429769	8.27556
1191729214	Cobstädt	50.922777	10.835277
1188246623	Aue- Bad Schlema	50.605	12.684444
118812157X	Altmörbitz	50.994309	12.57188
1187978469	Goldbach$gLandkreis Gotha	51.0	10.65
1187760099	Heiligendorf	52.35002	10.776559
1185534644	Kolonie Falkenberg$gBerlin	52.493611	13.444444
1183968396	Friedrichswerth	50.994166	10.544722
1182380549	Kalisz	51.760833	18.090833
1177193787	Schönholthausen	51.19071	8.00674
1172356491	Barchfeld$gWartburgkreis	50.8	10.3
1168395747	Altenlohm	51.310833	15.801666
1163815012	Reinhardsbrunn	50.861666	10.559166
1162214457	Westönnen	51.55243	7.962229
1155245911	Luppa$gRadibor	51.266388	14.398333
1152976966	Klix	51.264444	14.525833
1152969056	Großerkmannsdorf	51.08639	13.927369
1150538597	Krimderode	51.53056	10.783519
1150190434	Crostau	51.083329	14.449999
1149976616	Katharinenrieth	51.409166	11.351111
1148108955	Malbork	54.035833	19.026666
1148033033	Diehsa	51.244722	14.766111
1141617714	Eschenrode	52.284239	11.11532
1141324822	Magdeburg-Hopfengarten	52.087777	11.628611
1140493639	Praest	51.823869	6.34358
1139713469	Hermsdorf/Spree	51.325555	14.410555
1138798177	Osterhausen$gEisleben	51.454169	11.504559
1138385859	Lüttchendorf	51.501666	11.626944
1136432124	Ostro	51.217219	14.190749
1134908296	Hemsloh	52.600277	8.508888
1133509843	Exdorf	50.45718	10.54241
1129793745	Sülldorf$gSülzetal	52.025277	11.565
112972364X	Mettendorf$gThurgau	47.583329	9.25
1129693538	Derenburg	51.870833	10.910277
1124944249	Rodenkirchen$gStadland	53.402009	8.45321
1122755066	Lünten	52.10078	6.862499
1122299079	Hohendodeleben	52.10412	11.50473
1122053215	Cluj-Napoca	46.766666	23.6
1120714257	Dietramszell-Ascholding	49.0	11.5
1120361184	Großmonra	51.21667	11.3
1115862014	Burg-Gemünden	50.680833	9.037777
1113036494	Rentwertshausen	50.455379	10.43899
1106410947	Hradec Králové	50.209166	15.8325
1103600362	Sielow	51.79932	14.30486
1092214259	Schwabegg	48.18274	10.69036
1088794904	Hirschfelde$gLandkreis Görlitz	50.944369	14.885099
1085229823	Leitmeritz	50.533479	14.1318
1082571822	Tuzi$gMontenegro	42.5	19.3
1081786272	Burgsteinfurt	52.148389	7.33307
108131737X	Storcha	51.223055	14.300555
1078269173	Mistelbach an der Zaya	48.57	16.576666
1076932584	Hellwege	53.066666	9.233333
1075347955	Meseberg$gNiedere Börde	52.274166	11.530277
106985591X	Enzenreith-Hilzmannsdorf	47.66839	15.952489
1069588091	Kreypau	51.328055	12.043333
1069344664	Salsitz	51.038888	12.089722
1068842776	Bülzig	51.894166	12.755555
1068733225	Icking-Holzen	47.95	11.433329
1068556471	Heberndorf	50.486111	11.513888
1068172657	Calbitz	51.327222	13.004444
1067871160	Zschernitz	51.526666	12.228333
1067869948	Eilsdorf$gHuy, Landkreis Harzk	51.996944	10.994166
1067852190	Weltewitz	51.418055	12.562777
1067587357	Costewitz	51.144166	12.220833
1067472665	Neunkirchen$gLandkreis Darmstadt-Dieburg	49.7342	8.774649
1067423559	Neudorf$gErzgebirgskreis	50.482222	12.973888
1067330356	Kemnitz$gSalzwedel	52.825	11.112222
1067197184	Mittelsaida	50.763611	13.303888
1067153446	Satzung	50.526111	13.196111
1067087567	Hennersdorf$gDippoldiswalde	50.823333	13.626111
1067083472	Arendsee-Dessau	52.808888	11.474444
1067080945	Bieberstein$gReinsberg	51.006944	13.339722
1066208026	Rothschönberg	51.067222	13.393055
1065752350	Somsdorf	50.976111	13.605833
1065462832	Wilsdruff-Kesselsdorf	51.031629	13.59232
106472485X	Keula	51.331666	10.53
1063756227	Haseloff	52.088333	12.756944
1063750660	Ellichleben	50.816944	11.137222
1063319773	Mühlfeld$gMellrichstadt	50.446944	10.346111
1063318696	Bratislava	48.148159	17.106739
1063289572	Schönewalde-Ahlsdorf	51.841388	13.219444
1062628063	Heilig Kreuz$gBonn	50.734166	7.095277
1060128500	Völkershausen$gHeldburg	50.310833	10.707222
1060087561	Wildenfels-Härtensdorf	50.676388	12.608055
1060015404	Obergrünberg	50.858333	12.379166
1059830116	Loburg	52.115	12.078333
1059820897	Altenplathow	52.417222	12.141944
105982034X	Oppershausen$gUnstrut-Hainich-Kreis	51.133333	10.45
1059557851	Hohendorf	51.848888	11.707777
1059552191	Großosterhausen	51.454166	11.504444
1059425351	Oberseifersdorf	50.943055	14.803888
1059102609	Gröst	51.259722	11.849166
105908970X	Oberschmon	51.346944	11.541666
1058669656	Jüdenberg	51.750555	12.414722
1058455680	Pehritzsch	51.400833	12.588055
1058428500	Reibitz	51.556388	12.456666
1058392816	Bonau	51.095	11.993611
105839052X	Brandis-Beucha	51.323055	12.562222
1058386484	Wachau$gMarkkleeberg	51.275833	12.4275
1058370278	Glasten	51.159444	12.698888
1058227386	Colditz-Lastau	51.10186	12.821699
1057811254	Friedersdorf$gOberglogau	50.353549	17.864049
1056970863	Schnarsleben	52.141944	11.498888
1055970126	Dinker	51.643799	7.962869
1055836578	Albrechts$gSuhl	50.619444	10.641944
1054789568	Uhlstädt-Kirchhasel-Engerda	50.78824	11.40286
1054789134	Uhlstädt-Kirchhasel-Heilingen	50.771111	11.461111
1054666938	Kraftsdorf-Rüdersdorf	50.89744	11.958109
1054664897	Müncheberg-Eggersdorf	52.475555	14.104166
105410803X	Grabsleben-Cobstädt	50.922777	10.835277
1053918194	Bubendorf$gFrohburg	51.078055	12.539444
1053592590	Weesenstein	50.933333	13.859444
1053545495	Linthe	52.15	12.783333
1052962564	Stuttgart-Bopser	48.782222	9.176944
105280876X	Dammendorf$gLandsberg	51.5762495	12.129444
1052808255	Spickendorf	51.550555	12.133055
1052352030	Ebenheim	50.975277	10.511944
1052243681	Teutleben$gHörsel	50.945277	10.562222
105199408X	Wolfsburg$gThüringen	50.930555	10.264166
1051890306	Markneukirchen-Erlbach	50.31667	12.366669
1051347351	Gauern	50.783333	12.2
104935169X	Bethel$gBielefeld	52.006944	8.527777
1048759377	Gunzesried	47.52221	10.22916
1048249190	Schulpforte	51.143611	11.7525
1047651688	Mennighüffen	52.21667	8.699999
1047249081	Hundisburg	52.246666	11.399444
104671015X	Kleinkromsdorf	50.999722	11.371944
1044385707	Haindorf$gSchmalkalden	50.716111	10.411944
1043356169	Groß Rosenburg	51.916944	11.891666
1043306668	Baruth$gLandkreis Bautzen	51.226179	14.59251
1043135502	Brighton, Mich.	44.250289	-85.50033
1043127437	Laar	52.616666	6.733333
1042972249	Wigandsthal	50.9375	15.298888
1037373774	Lauenstein$gLudwigsstadt	50.511111	11.368333
1037333195	Homburg a. Main	49.793611	9.624444
1036618595	Linum	52.759444	12.874722
103525929X	Bad Neuenahr- Ahrweiler-Ahrweiler	50.541666	7.095277
1034993089	Sülzenbrücken	50.886666	10.891666
1034753576	Müsen	50.987229	8.040789
1034715186	Berlebeck	51.891849	8.874549
1034560204	Brachelen	51.007449	6.23801
1034409778	Ahlsdorf	51.545277	11.466388
103437205X	Weigersdorf$gHohendubrau	51.261111	14.645277
1034183435	Kaldenkirchen	51.320349	6.198299
103368340X	Reichartshausen$gLandkreis Miltenberg	49.659379	9.281909
1032833831	Weissagk	51.75	13.693888
1032352582	Michaelstein	51.806388	10.9125
1031347496	Bollstedt	51.20051	10.53275
1029908680	Stockholm-Rinkeby	59.33258	18.0649
102976154X	Thal$gRuhla	50.916944	10.392222
102949441X	Mansfeld-Leimbach	51.602777	11.463888
1029170703	Uelleben	50.913888	10.701388
1028554974	Markt Indersdorf- Ainhofen	48.360579	11.37789
1028230036	Dülmen-Buldern	51.866111	7.367222
1026471249	Essen-Kettwig	51.369079	6.94416
1026395046	Schönau a. d. Hörsel	50.945	10.4275
1025260317	Hermsdorf	50.873611	14.038333
1024752739	Beulbar-Ilmsdorf	50.921944	11.758611
1024101142	Falkenhain	51.024444	12.991388
1023732653	Klagenfurt am Wörthersee	46.624722	14.305277
1022607642	Tulane/Gravier	29.95465	-90.075069
1021390275	Luga	51.118055	13.4025
1021389374	Niederjahna	51.164444	13.433611
1020824085	Mühlen Eichsen	53.7575	11.25
1019429321	Lampertswalde	51.316666	13.666666
1019169222	Zscheila	51.176111	13.494722
1018935460	Jeseník nad Odrou	49.611944	17.905
1018268650	Oelzschau$gEspenhain	51.2175	12.524444
1016949707	Butjadingen-Waddens	53.546111	8.425833
1016412509	Sylt$gOrt	54.883333	8.35
101629896X	Wald-Sentenhart	47.913333	9.126944
1016067879	Achern-Oberachern	48.631149	8.076069
1015654568	Duttenberg	49.229166	9.206944
1015620973	Bartholomä$gOstalbkreis	48.753333	9.9875
1015619118	Baiereck	48.704749	9.585699
1015094430	Neudorf/Spree	51.312777	14.546944
1014700469	Allerheiligen$gWildon	47.25	15.166669
1014234085	Burghaun-Steinbach	50.69684	9.724529
1013436245	Barrie$gOntario	49.25014	-84.49983
1013107942	Neißeaue-Zodel	51.238888	15.010555
1011673746	Kreba-Neudorf	51.341666	14.691666
1011047284	Dähre	52.8	10.9
1010842749	Tröchtelborn	51.0	10.816666
1010823000	Lohsa- Groß Särchen	51.368888	14.308611
1010810502	Seegebiet Mansfelder Land- Erdeborn	51.475277	11.634722
1010556932	Teaneck, NJ	40.897599	-74.015969
1010481371	Heinzenbach	49.96667	7.416669
1010293435	Welwyn Garden City	51.80174	-0.20691
1010106449	Winona, Minn.	44.049959	-91.639319
1009927868	Möckern-Grabow	52.24889	11.962429
1009753800	Möser	52.213888	11.792777
1009707132	Kemberg	51.771944	12.632222
1009705857	Groß-Salze	52.004722	11.725277
1009703889	Saubach	51.21452	11.524599
1009701657	Gerbstedt	51.632809	11.62669
1009613790	Colditz-Schönbach	51.149444	12.7575
1008951439	Nacogdoches, Tex.	31.60351	-94.65549
1008944122	Sandersdorf-Brehna-Ramsin	51.61095	12.23812
1008504866	South Orange, NJ	40.748989	-74.261259
1008329878	Hohen Neuendorf- Borgsdorf	52.71293	13.276699
1008300349	Rösrath-Hoffnungsthal	50.914209	7.197549
1008298379	Kolkwitz-Papitz	51.78152	14.19983
1007907975	Hardegg-Merkersdorf	48.85	15.849999
1007268158	San Anselmo, Calif.	37.974649	-122.561639
1006968814	Spanish Town	17.99107	-76.957419
1006658025	Saint-Maclou Pontoise	49.049999	2.1
1004702213	Abberode	51.61536	11.289999
100438212X	Kirksville, Mo.	40.194749	-92.58325
1002699983	Großschirma	50.96602	13.285899
1002367026	Külte	51.408949	9.11814
1000972305	Union City, NJ	40.77955	-74.02375
100068718X	Wielazhofen	47.834	10.066119
1000602060	Wolferode	51.506388	11.512777
1000373258	Gadsden, Ala.	34.01426	-86.00664
050932934	Tallinn	59.436944	24.753333
050862820	Langebrück	51.126111	13.841944
050601334	Schönbach$gLandkreis Görlitz	51.066666	14.566666
050596217	Surakarta	-7.55611	110.83167
05058474X	Nysa	50.47379	17.334369
050577425	Sörnewitz$gKreis Meißen	51.137222	13.520833
050575600	Vilnius	54.68916	25.2798
050572717	Münsterberg	50.601111	17.040555
050570854	Bolesławiec	51.26418	15.569699
050570765	Stargard Szczeciński	53.336666	15.049722
050570692	Żagań	51.617589	15.314859
050570684	Dzierżoniów	50.728055	16.651388
05054425X	Hainichen$gBorna	51.191944	12.559722
050314912	Brzeg	50.860555	17.467222
050256122	Hassum	51.67958	6.07218
050042262	Tschernjachowsk	54.633333	21.815555
043286666	Oldenzaal	52.31333	6.92917
043280102	Suben	48.41183	13.43036
043279120	Netanya	32.33292	34.85992
043277292	Ede$gProvinz Geldern	52.033329	5.65833
043265073	Boone, NC	36.216799	-81.674549
043262244	Schöneiche bei Berlin	52.472777	13.692222
043262236	Zeuthen	52.366669	13.616669
043258573	Bozeman, Mont.	45.67965	-111.03856
043256155	Reinheim-Zeilhard	49.84611	8.79162
043254993	Rötha	51.19783	12.414469
043254829	Leutersdorf$gLandkreis Görlitz	50.95	14.65
043251250	Schleiz	50.578659	11.81024
043250637	Elsterberg	50.608409	12.16787
043249868	Jessen (Elster)	51.793333	12.9575
043249752	Wittstock/Dosse	53.161111	12.482777
043246249	Trebbin	52.216749	13.224959
043244815	Paunsdorf	51.349479	12.44494
043238882	Borchen	51.666666	8.733333
043238165	Schaftlach	47.795349	11.68279
043233465	Busan	35.10278	129.040279
043229298	Holzgerlingen	48.63969	9.01149
043217265	Buttstädt	51.122222	11.417222
043217117	Dornhan	48.350079	8.50901
043214169	Neuhofen$gRhein-Pfalz-Kreis	49.427779	8.42472
043211518	Altdöbern	51.649999	14.033329
043206867	Kressbronn am Bodensee	47.5975	9.596944
043206646	Bärenthal	48.06667	8.933329
043202179	Bad Köstritz	50.93032	12.010049
043201954	Jaidhof	48.533329	15.48333
043201806	Newton, Mass.	42.33704	-71.20922
043197094	Gütersloh-Isselhorst	51.94604	8.408569
043191576	Rottenbauer	49.720419	9.96629
043178480	Winterlingen	48.183329	9.116669
043177786	Neuwied-Heimbach-Weis	50.450389	7.544019
043177026	Laage	53.9256	12.34694
043176542	Neupotz	49.11778	8.31944
043171737	Panschwitz	51.23333	14.199999
043171729	Kuckau	51.23333	14.199999
043171028	Mügeln	51.23619	13.04568
043170994	Wilsdruff	51.05199	13.536569
043152856	Schleiden	50.528888	6.476666
043151957	Böhmisch-Leipa	50.68551	14.537639
043151337	Großbottwar	49.001469	9.29348
043150225	Ternitz	47.715649	16.03575
043149057	Strömstad	58.93945	11.1712
043148840	Tonnerre	47.856279	3.973689
043146724	Erlangen-Büchenbach	49.590989	11.00783
043146422	Uehlfeld	49.67085	10.720169
043144152	Schöngeising	48.14135	11.203989
043144012	Laakirchen	47.981879	13.821659
043143997	Kapfenberg	47.44458	15.293309
043143032	Ottensheim	48.332459	14.17425
043142915	Kindberg	47.5	15.449999
043142664	Melsdorf	54.31667	10.033329
043139779	Lauchringen	47.626989	8.31442
043136699	Neukirchen am Großvenediger	47.250459	12.27585
043136176	San Marcos, Tex.	29.883269	-97.941389
043132413	Prešov	48.99839	21.23393
043130879	Wiblingen	48.36001	9.988979
043130313	Schrems	48.783329	15.06667
043127363	Königsbrück	51.26451	13.9054
043127347	Bad Schmiedeberg	51.685277	12.734722
043126685	Hohen Neuendorf	52.67631	13.277749
043122965	Gänserndorf	48.339249	16.720159
043119506	Schneidemühl	53.151449	16.737819
043116256	Zöblitz	50.65912	13.22981
043107990	Arbroath	56.563169	-2.587359
043105009	Gommern	52.073909	11.822969
043103685	Schwülper	52.35	10.433333
043099092	Schwanenstadt	48.05537	13.77505
043098932	Tegernheim	49.016669	12.183329
04309788X	Aspen, Colo.	39.191099	-106.817539
043097650	Attenkirchen	48.5	11.766669
043096603	Greeley, Colo.	40.42331	-104.70913
043096328	Flagstaff, Ariz.	35.19807	-111.651269
04309435X	Elgin, Ill.	42.03725	-88.281189
043093566	Aue-Bad Schlema- Bad Schlema	50.6025	12.672777
043093469	Essenbach	48.61332	12.218329
04308589X	Johannisburg	53.62744	21.812529
043085377	Harstad	68.79833	16.54165
043084389	Woltersdorf$gLandkreis Oder-Spree	52.45	13.766669
043080758	Matzen$gNiederösterreich	48.399999	16.699999
043077382	Melle-Gesmold	52.21049	8.27236
043076610	Willebroek	51.060409	4.36019
043076262	St. Johann in Tirol	47.25	11.33333
043066968	Pillnitz	51.0073	13.87565
043061850	Nova Gorica	45.95604	13.648369
043060102	Zürich-Höngg	47.366666	8.55
04305885X	Schwalmtal$gKreis Viersen	51.21667	6.26667
04305871X	Senigallia	43.70926	13.21667
043055699	Surberg	47.866669	12.699999
043054439	Springfield, Mo.	37.21533	-93.29824
043053262	Roßwein	51.06589	13.18308
043051235	Ihringen	48.04303	7.647599
043047106	Genthin	52.40668	12.1592
043046037	Bleicherode	51.44026	10.57202
043043194	Limerick$gShannon	52.66472	-8.62306
043041663	Prüfening	49.015	12.09556
043035892	Lučenec	48.332489	19.667079
043035698	Schönebeck (Elbe)	52.016944	11.730833
043034705	Hermsdorf$gSaale-Holzland-Kreis	50.896944	11.855277
043033814	Tschechische Republik	49.75	15.0
043033350	Cold Spring Harbor, NY	40.87149	-73.456789
043033334	Indiana, Pa.	40.621459	-79.152529
043028063	Stevenage	51.902239	-0.20256
043018815	Reichenbach/O.L.	51.141388	14.8025
043018785	Offingen	48.482579	10.362489
043017592	Bernsbach	50.583329	12.766669
043015565	Elsterwerda	51.46043	13.520009
043015549	Seifhennersdorf	50.934919	14.60194
043013589	Lake Arrowhead, Calif.	34.248339	-117.18921
043012973	Güsten	51.79637	11.61246
043009670	Klanjec	46.046669	15.73611
043009190	Suresnes	48.871429	2.22929
043008690	Hausach	48.28426	8.176019
043003176	Tscherepowez	59.13333	37.899999
043001726	Finsterwalde	51.633879	13.706619
043001246	Artern	51.364319	11.291679
042997380	Bad Marienberg (Westerwald)	50.649444	7.949444
042997275	Frohburg	51.057189	12.55746
042993407	Payerbach	47.69209	15.8634
042989558	Oschersleben (Bode)	52.30277	11.228888
04298808X	Moustier-Ventadour	45.39576	2.10476
042986532	Moncalieri	44.99625	7.690319
042984238	Berlin-Pankow	52.6	13.433329
042983924	Scheibenberg	50.54023	12.91215
042983630	Mirow	53.275	12.815277
042980410	Strullendorf-Wernsdorf	49.859009	11.00899
04297951X	Schwedt/Oder	53.059629	14.281539
042979498	Coswig (Anhalt)	51.88618	12.4501
04297948X	Schmölln	50.896666	12.353333
042979455	Weinböhla	51.16667	13.56667
042977622	Enna	37.558849	14.28917
042974143	Plasencia	40.031159	-6.088449
042973775	Oedheim	49.240279	9.25333
042972647	Ronneburg	50.863399	12.186659
042972574	Uetze	52.46511	10.20467
042971136	Untermerzbach	50.12754	10.856339
042968836	Euerdorf	50.148333	10.023055
042967236	Tempe, Ariz.	33.414769	-111.90931
042966515	Unfinden	50.093029	10.568189
042964393	Mulfingen	49.340277	9.800833
042961874	Aichi	35.180169	136.90656
04295715X	Bristol, RI	41.67705	-71.266159
042955726	Oerlinghausen	51.954529	8.6622
042953693	Eibach$gNürnberg	49.454166	11.0775
042951933	Bausenhagen	51.506279	7.803899
042945933	Des Moines, Iowa	41.60054	-93.60911
042945852	Jekaterinburg	56.8575	60.612499
042943035	Witten-Annen	51.44572	7.369769
042940206	Donzy-le-Pertuis	46.45036	4.720399
042939569	Schwaan	53.940469	12.10715
042939488	Weißensee	51.19989	11.06914
042928559	Provo, Utah	40.23384	-111.658529
042927862	Blackpool	53.81667	-3.049999
042926947	Südheide-Unterlüß	52.83471	10.296849
042926343	Coswig	51.13204	13.583119
042925487	Meppel	52.69583	6.19444
042917506	Pferdingsleben	50.96667	10.81667
042914736	Lier$gBelgien	51.131279	4.57042
042914620	Staßfurt	51.851944	11.585
042912598	Romanshorn	47.565833	9.378611
042912474	Hamburg-Neuenfelde	53.51829	9.79828
042908000	Altnau$gThurgau	47.583329	9.25
04290689X	Aichstetten	47.892949	10.078369
042906350	Taxa	48.31597	11.20949
04289719X	Atzenbrugg	48.29119	15.90614
042896762	Wechmar	50.893619	10.777219
042894158	Kohren	51.019722	12.602777
042891256	Frauenbreitungen	50.756666	10.33
042885302	Saporoschje	48.58706	39.188339
042878624	Neugersdorf	50.97729	14.60881
042876427	Samara	53.20006	50.149999
042876176	Mels	47.045555	9.423055
042873967	Schöppingen	52.1	7.233329
042873827	Soest$gUtrecht	52.173329	5.291669
042866863	Oberhaching-Deisenhofen	48.024549	11.59744
042862507	Wagna	46.75	15.55
042861039	Leinefelde	51.387959	10.3262
042860636	Kopervik	59.28354	5.306689
042860253	Ganacker	48.71744	12.68913
042859069	Hardheim	49.611939	9.47194
042857643	Münsingen$gKanton Bern	46.872777	7.560833
042857147	Eppenschlag	48.88938	13.299889
042854954	Penig	50.93336	12.704219
042852374	Trautskirchen	49.45	10.599999
042851785	P'yŏngyang	39.03385	125.75432
042849306	Brunnen$gKanton Schwyz	47.083329	8.75
042849012	Krombach$gLandkreis Aschaffenburg	50.083329	9.21667
042846536	Ebersdorf$gThüringen	50.484619	11.667569
042844657	Ivenack	53.71667	12.96667
042843049	Schwarzatal- Oberweißbach/Thür. Wald	50.582309	11.143819
042839394	Bischofswerda	51.12771	14.17974
042838746	Wisła	49.656289	18.8591
042836085	Malsfeld	51.083329	9.533329
042834570	Krasnojarsk	56.018333	92.866944
042828252	Sandefjord	59.13118	10.216649
042826934	Greensboro, NC	36.072639	-79.791979
042826829	Großköllnbach	48.69883	12.6052
04282253X	Burg b. Magdeburg	52.271388	11.854722
042814022	Norman, Okla.	35.222569	-97.43948
042813220	Osimo	43.482759	13.487479
042812348	Allentown, Pa.	40.608429	-75.490179
042809924	Bösing	48.289859	17.266639
042809266	Oberneudorf	49.50162	9.26462
042801443	Geithain	51.05528	12.69674
042797950	Willanzheim	49.680109	10.23248
042795982	Egeln	51.94384	11.43265
042795869	Mayrhofen	47.16667	11.866669
042790123	Pilsting	48.70116	12.651049
042789745	Auerbach/Vogtl.	50.511666	12.400833
042789710	Weißwasser/O. L.	51.503888	14.64
042788749	Gutach im Breisgau	48.24844	8.21293
042788714	Reichenbach im Vogtland	50.622777	12.303333
042788684	Haßmersheim	49.299999	9.15
042786533	Raabs an der Thaya	48.85	15.5
042786150	Annandale-on-Hudson, NY	42.012869	-73.90819
042785898	Brand-Erbisdorf	50.866388	13.322777
042785839	Oelsnitz/Erzgeb.	50.725833	12.701111
042785723	Strehla	51.352479	13.226599
042785715	Heidenau	50.972209	13.867409
042785529	Kremenets$gTernopol$gOblast	50.96666	25.724444
042785332	Dendermonde	51.028689	4.10106
042784999	Bettenburg	49.51861	6.10278
042782376	Gleisdorf	47.105589	15.71011
042776015	Tönisvorst- Sankt Tönis	51.325459	6.495459
042775957	Tropea	38.675379	15.89479
042770890	Adorf/Vogtl.	50.320555	12.256111
042768810	Mainz-Hechtsheim	49.96556	8.273059
042760003	Ossegg	50.62115	13.69274
042759765	Rüdesheim-Eibingen	49.985039	7.935719
042758335	Groß-Siegharts	48.783329	15.4
042754526	Lugau/Erzgeb.	50.73843	12.748609
042747228	Grand Rapids, Mich.	42.96336	-85.66809
042745608	Long Island$gStaat New York	43.499999	-75.499899
042739683	Horní Slavkov	50.138629	12.807579
042737222	Ulan-Ude	51.82721	107.606269
042736153	Kotka	60.46667	26.916669
042729599	Gardelegen	52.525199	11.395229
042729432	Liezen	47.56667	14.23333
04272726X	New York- Flushing	40.76538	-73.817359
042724333	Wellesley, Mass.	42.296489	-71.292559
042724317	Palo Alto, Calif.	37.441879	-122.14302
042722764	Pôrto Alegre	-30.033055	-51.23
042721873	London-Clerkenwell	51.50853	-0.12574
042721067	Waidring	47.583329	12.56667
042717965	Clemson, SC	34.683439	-82.83737
042717957	Olympia, Wash.	47.037869	-122.9007
042717914	Denton, Tex.	33.21484	-97.13307
042717493	Schaulen	55.933329	23.316669
042717442	Rieti	42.407229	12.85918
042717167	Saratoga Springs, NY	43.083129	-73.78457
042712165	Dnipropetrowsk	48.45	34.98333
042709059	Tirana	41.3275	19.818889
042708672	Lansing, Mich.	42.73254	-84.55553
042708397	Oberndorf bei Salzburg	47.95	12.933329
042708303	Słupca	52.287222	17.871666
042708249	Wolfsegg am Hausruck	48.10669	13.672739
042701872	Wernigerode-Schierke	51.763939	10.662119
042701325	Bergen auf Rügen	54.418055	13.433333
04269986X	Zlín	49.226449	17.670649
042698413	Loja$gEcuador	-3.993129	-79.20422
04269521X	San Diego, Calif.	32.715277	-117.157222
042693926	Dahlenburg	53.187669	10.736499
042693322	Perleberg	53.07583	11.85739
042693063	Tuchel	53.587919	17.859049
042692202	Simonswald	48.105	8.063333
042692164	Tornesch	53.7	9.71667
042686776	Kingsville, Tex.	27.515869	-97.85611
042686733	Boise, Idaho	43.6135	-116.20345
042678277	Neuilly-sur-Seine	48.884599	2.269649
042678080	Bad Düben	51.59174	12.58492
042675553	Lohberg	49.17604	13.105489
042673844	Vibo Valentia	38.67428	16.095099
04267185X	Oberasbach	49.42275	10.95766
042671833	Aue-Bad Schlema- Aue	50.590277	12.706666
042670713	Hempstead, NY	40.706209	-73.61874
042670705	Langenfeld$gLandkreis Neustadt a.d. Aisch- Bad Windsheim	49.616669	10.516669
042670268	Sankt Petersburg	59.89444	30.26417
042665574	Slough	51.509489	-0.59541
042665299	Fensterbach	49.4	12.05
042663687	Kornburg	49.355209	11.09885
042661196	Kleinarl	47.27725	13.319549
042656540	Kolding	55.4904	9.47216
042650135	Kyritz	52.94212	12.39704
042649412	Ningbo	29.87819	121.549449
042646316	Kranj	46.238869	14.35561
04264240X	Sewanee, Tenn.	35.203139	-85.92109
042639662	Pyritz	53.1462	14.892569
042639646	Bad Altheide	50.40373	16.512709
042638062	Meuselwitz	51.04316	12.29935
042638054	Lucka	51.09727	12.33336
042634032	Helsingør	56.036059	12.613599
042630878	Santa Monica, Calif.	34.019449	-118.49119
042622573	Oberlungwitz	50.782299	12.70789
042622549	Steinhagen$gKreis Gütersloh	52.0	8.4
042619378	Wurzbach	50.46356	11.537789
04261645X	Nauen	52.60701	12.873739
042613485	Hiltpoltstein	49.66075	11.32272
042611733	Tewkesbury	51.994529	-2.15681
042607566	Clayton$gMelbourne	-37.814	144.96332
042604656	Schaippach	50.079639	9.66628
04260382X	Kasendorf	50.03665	11.352029
042602564	Stiftskirche zum Heiligen Kreuz$gStuttgart	48.782222	9.176944
042602394	Belgern	51.48263	13.12382
042602017	Oppurg	50.710555	11.652777
042600847	Hargesheim	49.866669	7.83333
042593417	Neuendorf$gElmshorn	53.737569	9.562689
042593360	Kristiansand	58.146709	7.995599
042592798	Amras	47.25	11.416669
042592593	Bad Doberan- Heiligendamm	54.14323	11.840519
04258955X	Periam	46.049999	20.866669
042584957	Zaandam	52.43854	4.82643
042579503	Kleinaspach	48.990479	9.361449
042572762	Jona$gStadt	47.2325	8.856388
042568617	Riedering	47.83874	12.207779
042565340	Tuscaloosa, Ala.	33.209839	-87.569169
042562376	Babelsberg	52.393219	13.095499
042559952	Zeilitzheim	49.89846	10.271259
042559944	Leinburg	49.45167	11.31
042559723	Ernstthal$gSachsen	50.80064	12.71287
042559707	Hohenstein$gSachsen	50.80064	12.71287
042555388	Gloggnitz	47.674869	15.938929
042551935	Götzens	47.23606	11.31154
042550505	Plymouth	50.371529	-4.143049
042550106	Lunel	43.677779	4.13611
042547032	Gransee	53.00704	13.1575
042546338	Kronshagen	54.333329	10.08333
042543568	Włocławek	52.64817	19.067799
042540968	Irmelshausen	50.364469	10.469889
042539455	Endingen	47.333329	8.166669
04253237X	Adelebsen	51.58272	9.754609
042531985	Oradea	47.06667	21.93333
042531462	Freital	51.00166	13.648799
042529603	Kobern-Gondorf	50.299999	7.45
042526264	Managua	12.13282	-86.250399
042525454	Norfolk, Va.	36.846666	-76.285
042525306	Mertloch	50.26948	7.308139
042525292	Königsberg, Neumark	52.963888	14.427777
042524474	Las Palmas de Gran Canaria	28.09973	-15.413429
042523486	Pretzfeld	49.754539	11.1743
042522617	Bassenheim	50.366669	7.466669
042520819	Baveno	45.90838	8.49962
042515440	Saint Petersburg, Fla.	27.770859	-82.67927
04251519X	Wallenhorst	52.35	8.016669
04251410X	Nelson$gNeuseeland	-42.0	174.0
04251195X	Fort Collins, Colo.	40.585259	-105.084419
042508916	Seevetal-Fleestedt	53.41102	9.985549
042506808	Salford	53.487709	-2.29042
042506743	Fayetteville, Ark.	36.062579	-94.15743
042502659	Loxstedt	53.46667	8.65
042499992	Utting am Ammersee	48.822429	13.083339
042498384	Freyburg (Unstrut)	51.213619	11.768039
04249463X	Rengsdorf	50.5	7.5
04249382X	Altenkirchen$gLandkreis Vorpommern-Rügen	54.63624	13.34332
042493420	Königshütte	50.305819	18.974199
042492750	Zwönitz	50.630259	12.80999
042491118	Kent, Ohio	41.153669	-81.357889
042490936	Lubbock, Tex.	33.57786	-101.85517
042490758	Rechberghausen	48.7308	9.64419
042489105	Palmerston North	-40.35636	175.61113
042485584	Akron, Ohio	41.08144	-81.519009
042483972	Skopje	42.00122	21.428779
042481775	Ramspau	49.158619	12.1416
042481244	Wehringen	48.25	10.8
042480868	Rieste	52.48333	8.016669
042479193	Weingarten (Baden)	49.054444	8.526666
042479029	Steinbach-Hallenberg	50.69624	10.56541
042479010	Steinbach$gSteinbach-Hallenberg	50.696111	10.565277
042474477	Landau a. d. Isar	48.672222	12.693055
042471923	De Kalb, Ill.	41.92947	-88.75036
042470935	Benfeld	48.37062	7.5937
042467764	Orsay	48.69572	2.187269
042462878	Vaterstetten	48.10537	11.76825
042459516	Dana Point, Calif.	33.46697	-117.698109
042455944	Tschernihiw	51.50551	31.28488
042455693	Peuerbach	48.3453	13.77205
042454514	Brandon$gManitoba	55.9	-97.899999
042453275	West Lafayette, Ind.	40.42587	-86.908069
042452430	Passail	47.283329	15.516669
04245123X	Sendenhorst	51.843029	7.829959
04244876X	Glauchau	50.81987	12.54493
042445302	Concepción$gChile	-30.0	-71.0
042440386	Rohrbach in Oberösterreich	48.5725	13.988333
042435064	Irvine, Calif.	33.66946	-117.823109
042434726	Newport, RI	41.490099	-71.31283
042430860	Nienburg (Saale)	51.837222	11.769722
042430674	Tønsberg	59.267539	10.407619
042430267	Easton, Md.	38.774279	-76.076329
042428955	Nacka	59.31053	18.16372
042428610	Mecklenburg-Vorpommern	53.5	12.5
042427428	Marktredwitz	50.004429	12.085929
042426464	Havixbeck	51.98333	7.416669
042425212	Hilversum	52.223329	5.176389
042424925	Kerpen$gRhein-Erft-Kreis	50.869909	6.696909
042421950	Ipswich	52.05917	1.15545
042420326	Marktrodach	50.25	11.38333
042420164	Wipfeld	49.91667	10.166669
042419107	Hereford	52.05684	-2.71482
042418704	Winterhausen	49.706829	10.01661
042417597	Ahlden (Aller)	52.759444	9.551111
042415969	Hohenstein-Ernstthal	50.80064	12.71287
042414563	Euerbach	50.06199	10.13695
042413915	Bad Friedrichshall	49.229166	9.206944
042413605	Bangor$gNordirland	54.5	-6.5
042413303	Cleversulzbach	49.21403	9.354129
042412358	Karlskoga	59.32667	14.52386
042412072	Sotschi	43.59917	39.72569
042411467	Pfinztal-Söllingen	48.986666	8.539444
042410339	Eisenkappel-Vellach-Ebriach	46.46667	14.516669
042408970	Kampen$gOverijssel	52.554999	5.911109
042408784	Blaibach	49.16667	12.81667
042408776	Tambow	52.73169	41.44326
042407958	Heerlen	50.88365	5.981539
042406919	Gössenheim	50.016669	9.783329
042405742	Markt Nordheim	49.590949	10.355639
042402956	Altmünster	47.902189	13.76415
042402727	Sachsen b. Ansbach	49.28999	10.65971
042401275	Huddersfield	53.649039	-1.78416
042395836	Eisenberg$gSaale-Holzland-Kreis	50.968611	11.901944
042395577	Wandlitz	52.741959	13.45799
04239340X	Hemmersheim	49.56286	10.096439
042393248	Grenzach	47.55	7.683333
042392454	Guastalla	44.91317	10.66089
042392438	Guayaquil	-2.18194	-79.89167
042387930	Frýdlant$gKraj Liberec	50.921388	15.079722
042385776	Gräfentonna	51.09217	10.729269
042385237	Tacoma, Wash.	47.252879	-122.444289
042384990	La Orotava	28.39076	-16.523089
042384656	Long Beach, Calif.	33.766959	-118.189229
042382785	Heldritt	50.35746	10.80579
042382645	Hemmingen$gRegion Hannover	52.31425	9.723589
042382394	Gloucester, Mass.	42.615929	-70.66199
042381746	Gerolsbach	48.492829	11.361489
042381088	Stallupönen	54.63056	22.57139
042380669	Burkardroth	50.271259	9.991619
042379857	Altenkirchen (Westerwald)	50.685833	7.641666
042378427	Friedenfels	49.88333	12.116669
042375703	Erlangen-Frauenaurach	49.56839	10.96278
042374855	Franeker	53.185459	5.541229
042374537	Jyväskylä	62.23333	25.733329
042368588	Nordharz-Veckenstedt	51.901139	10.73203
042368138	Egham	51.431579	-0.55239
042367182	Kandern	47.713929	7.66237
042367123	Wichita, Kan.	37.692239	-97.33754
042367034	Gülchsheim	49.58122	10.09214
042366879	Fermo	43.164659	13.72329
042358655	Woodstock, NY	42.040919	-74.1182
042358329	Neroth	50.196019	6.746889
042357969	Bath, Me.	43.91064	-69.820599
042356857	Lingenfeld	49.253889	8.338609
042356407	Gollnow	53.56392	14.82854
042355087	Eibenstock	50.494309	12.59978
042354862	Eilenburg	51.459839	12.63338
042352525	Odagsen	51.785719	9.870779
042350972	Ernhüll	49.50706	11.58684
042350107	Dartington	50.45067	-3.708419
042347998	Tägerwilen	47.656944	9.14
042346002	Sagan	51.617589	15.314859
042342317	East Lansing, Mich.	42.73698	-84.483869
042340365	Sachsenkam	47.80543	11.643959
042336872	Friedrichsthal	49.32786	7.096219
042336333	Guadalajara$gMexiko	20.666669	-103.33333
042335795	Harrow	51.57835	-0.33208
042331609	Drachten	53.11254	6.0989
042331579	Venlo	51.369999	6.168059
04232971X	Saint-Maximin-la-Sainte-Baume	43.45214	5.86219
042328578	Ehrwald	47.399999	10.916669
042326656	Schiedam	51.91917	4.388889
042324580	Perth$gWestern Australia	-31.952222	115.861388
04232341X	Halden	59.12478	11.387539
042320577	Aubervilliers	48.91667	2.383329
042320208	Kolomyja	48.531149	25.03649
042317967	Manaus	-3.101939	-60.024999
042314232	Buttenwiesen	48.6	10.71667
042309956	Frankenhausen$gCrimmitschau	50.839799	12.38992
042309840	Doberlug-Kirchhain	51.625779	13.562319
042309174	Columbia, SC	34.000555	-81.034722
042309123	Diest	50.989229	5.05062
042308798	Deuerling	49.033329	11.9
04230833X	Küps	50.19265	11.275999
042307937	Tann (Rhön)	50.642839	10.023849
042307457	Colditz	51.12821	12.802949
042303958	Parchim	53.42631	11.84875
04229973X	Northfield, Minn.	44.4583	-93.1616
042298679	Casale Monferrato	45.13336	8.45714
042296668	Guelph	43.5501	-80.249669
042296153	Eugene, Or.	44.05207	-123.086749
042295009	Venice, Calif.	33.990839	-118.46008
042294002	Križevci	46.02194	16.5425
042292565	Carlisle	54.895099	-2.9382
042292182	Calais	50.9581	1.85205
042291410	Caltanissetta	37.48774	14.044969
042290023	Wahlstatt$gLiegnitz	51.14419	16.24208
042286972	Fredrikstad	59.218099	10.9298
042286077	Grottaferrata	41.783619	12.675679
04228421X	Saalburg$gSaale-Orla-Kreis	50.502409	11.731759
042276675	Örebro	59.27412	15.206599
042276144	Northampton, Mass.	42.32509	-72.641199
042275784	Bützow	53.84832	11.982559
042274788	Cölbe	50.85	8.8
042273560	Icking	47.95	11.433329
042272955	Stolzenau	52.516669	9.06667
042272513	Bradenton, Fla.	27.49893	-82.57482
042271460	Teisendorf	47.849209	12.81919
042268974	Bollschweil	47.92143	7.78986
042267897	Vellmar	51.35806	9.479739
042263905	Pfalzgrafenweiler	48.526499	8.56582
042260957	Portland, Or.	45.523449	-122.676209
042260213	Hartford, Conn.	41.76371	-72.68509
042258030	Schrimm	52.88611	17.15
042257867	Dreieich-Buchschlag	50.02467	8.668049
042255732	Marpingen	49.45228	7.0582
042255155	Bischofshofen	47.41667	13.21667
042251974	Deutschlandsberg	46.81528	15.22222
042251834	Fort Worth, Tex.	32.725409	-97.320849
042246415	Riwne	50.62308	26.227429
042244889	Ratingen-Lintorf	51.336799	6.83122
042244048	Henstedt-Ulzburg	53.791319	9.979789
042243750	Bischofsheim Kr. Groß Gerau	49.993888	8.367222
042242169	Palestrina	41.83552	12.888989
042240697	Brooklyn, NY	40.6501	-73.949579
042238862	Ivančice	49.101439	16.37752
042238242	Dippoldiswalde	50.89621	13.66905
042234263	Graudenz	53.48411	18.75366
042233852	Triesenberg	47.118149	9.541969
042230373	Duluth, Minn.	46.78327	-92.106579
042229510	Düsseldorf-Bilk	52.243429	7.28462
042227410	Donezk$gRussland	60.0	100.0
042226945	Carbondale, Ill.	37.727269	-89.21675
042225434	Houten	52.028329	5.168059
042224144	Pörtschach am Wörther See	46.656669	14.57389
042222818	Altshausen	47.933329	9.533329
042222796	Schwarzenberg$gVorarlberg	47.25	9.916669
042222753	Wertach	47.603	10.40966
042221412	Norrköping	58.594189	16.1826
04222134X	Jönköping	57.781449	14.15618
042220963	Ystad	55.429659	13.82041
042219728	Ludvika	60.14959	15.18776
042219698	Helsingborg	56.046729	12.694369
042215102	Thionville	49.366669	6.166669
042208823	Malchin	53.739899	12.76539
042203538	Geroldshausen	49.68361	9.902219
042197244	Bubenreuth	49.62745	11.017229
042196353	Jacksonville, Fla.	30.33218	-81.655649
042195403	Rosengarten$gLandkreis Schwäbisch Hall	49.05454	9.7398
042190185	Beverungen	51.66801	9.374169
042189268	Duchroth	49.783329	7.733329
042188695	Eichelsee$gGaukönigshofen	49.63333	10.0
042188156	Enkhuizen	52.70333	5.291669
042185688	Loßburg	48.4	8.45
042185467	Växjö	56.87767	14.80906
042185459	Akureyri	65.68353	-18.0878
042185033	Sievershütten	53.85	10.099999
04218469X	Ventura, Calif.	34.27834	-119.29317
042184215	Sonntagberg	47.995609	14.76065
042184045	Stockton, Calif.	37.9577	-121.290779
042182433	Marienmünster	51.833333	9.216666
042180953	Gratwein	47.116669	15.31667
042177685	Haimburg$gKärnten	46.695	14.672499
042177014	Charlotte, NC	35.227089	-80.84313
04217693X	Charleston, SC	32.776569	-79.93092
042176247	Bad Grönenbach	47.877139	10.22207
04217452X	Albuquerque, NM	35.08449	-106.651139
042172349	Erlabrunn$gLandkreis Würzburg	49.85972	9.84417
04217158X	Kaunas	54.899999	23.899999
042169828	Flöha	50.85613	13.07407
04216981X	Wilnsdorf	50.81667	8.099999
042167876	Amt Creuzburg- Creuzburg	51.052777	10.2475
042166489	Corrientes	-27.480599	-58.834099
042165857	Perm	58.010277	56.25
04216446X	Luckenwalde	52.09029	13.167719
042160154	Owatonna, Minn.	44.083849	-93.226039
042159210	Oiberg	48.79433	13.93791
042156092	Wittelshofen	49.06121	10.48121
042153913	Sulz$gVorarlberg	47.28721	9.65183
042151643	Lindberg	49.036799	13.254229
042151139	Leidersbach-Roßbach	49.901389	9.221669
042141559	Büchold	50.01032	9.951639
042138450	Bagnolet	48.866669	2.416669
042137497	Stony Brook, NY	40.925649	-73.14094
042137020	Burlington, Vt.	44.475879	-73.212069
042132274	Frederikssund	55.839559	12.06896
04213157X	Drohiczyn	52.400109	22.658529
042130077	Remlingen$gLandkreis Würzburg	49.804769	9.694839
04213000X	Montevarchi	43.52765	11.568929
042129559	Ayr	55.46273	-4.63393
042126525	Antananarivo	-18.913679	47.53613
042125286	Brisbane	-27.467939	153.028089
042120004	Adapazarı	40.78056	30.40333
042117828	Ohrdruf	50.828888	10.734166
042117577	Colorado Springs, Colo.	38.83388	-104.821359
042116996	Alsdorf$gStädteRegion Aachen	50.876719	6.16399
042114187	Burgwallbach	50.3573	10.10768
042114152	Madras	13.087777	80.278333
042113067	Valtice	48.74069	16.754989
042112486	Werl-Büderich	51.554929	7.91403
042111994	Waldthurn	49.672209	12.32919
042110718	Stolberg-Breinig	50.725859	6.21766
04210419X	Bergrheinfeld	50.01028	10.180889
042101530	Gutenstetten	49.616669	10.63333
042101263	Caserta	41.083219	14.334929
042089670	Großrosseln	49.202959	6.841479
042089417	Albany, NY	42.65258	-73.75623
042087783	Birkweiler	49.20333	8.03833
042087252	Werdau	50.73604	12.375339
042084849	Niigata	37.902219	139.023609
042077907	Athens, Ohio	39.329239	-82.101259
04207729X	Alessandria	44.912449	8.61894
04207701X	Worcester, Mass.	42.26259	-71.802289
042072727	Dundee	56.5	-2.96667
042070813	Kronprinzenkoog	53.96667	8.96667
042068452	Empfingen	48.39258	8.710359
042064376	Westminster Abbey$gLondon	51.50853	-0.12574
042062012	Affalterbach	48.922669	9.32362
042058783	Markt Ippesheim	49.602139	10.225519
042057035	Syracuse, NY	43.048119	-76.147419
042055962	Freyung	48.809519	13.547679
042055024	Fort Lauderdale, Fla.	26.122309	-80.143379
042055008	Williamstown, Mass.	42.71202	-73.20372
042053633	Pasadena, Calif.	34.147779	-118.144519
04205091X	Widdern	49.318249	9.42209
042046319	Chapel Hill, NC	35.9132	-79.05584
042038960	Maintal$gStadt	50.15	8.833333
042034469	Sassnitz	54.5157	13.64451
042032253	Dietramszell	47.848709	11.595299
042026598	Münsterlingen	47.631944	9.2325
042024617	Rancho Mirage, Calif.	33.739739	-116.41279
042022193	Großenaspe	53.98333	9.96667
042019079	Holzwickede	51.5	7.63333
042016592	Falkenberg$gTirschenreuth	49.858333	12.226666
042012783	Wismar	53.89314	11.452859
042012414	Swansea	51.620789	-3.943229
042005892	Crotone	39.085099	17.117809
042005582	Wildflecken	50.377639	9.91092
042005256	Warwick	52.283329	-1.583329
042004470	Louvain-la-Neuve	50.668289	4.614429
042003296	Claremont, Calif.	34.096679	-117.71978
042000386	Karlsdorf-Neuthard	49.13472	8.530279
041994175	Durham, NC	35.99403	-78.898619
041994019	Reno, Nev.	39.529629	-119.8138
041993810	Bärnbach	47.033329	15.849999
041989988	March-Hugstetten	48.054999	7.78218
04198661X	Schortens	53.533329	7.95
04198515X	Martin$gSlowakei	49.066388	18.923888
041983394	Kingston$gJamaika	18.25	-77.5
041983122	Valparaíso	-33.035833	-71.629444
041983009	Portland, Me.	43.66147	-70.25533
041980352	Novi Sad	45.251669	19.836939
041978838	Waldalgesheim	49.95	7.83333
041978110	Poppenhausen (Wasserkuppe)	50.487777	9.867777
041977084	Bad Berneck i. Fichtelgebirge	50.045555	11.672222
041976673	Cartagena	37.605119	-0.98623
041975162	Ermatingen	47.670555	9.085833
041974190	Königs Wusterhausen	52.301409	13.632999
041973062	Nastätten	50.19883	7.85892
041969200	Zeulenroda	50.652779	11.983769
041967755	Morgantown, W Va.	39.62953	-79.955899
041960564	Ramat Gan	32.0812	34.819339
041959027	Erlenstegen	49.47487	11.137859
041957202	Lexington-Fayette, Ky.	38.049799	-84.45855
04195372X	Sillenbuch	48.745069	9.21212
04195369X	Stuttgart-Sillenbuch	48.745	9.211944
041952235	Victoria$gBritish Columbia	53.99983	-125.0032
041950259	Inden	50.866669	6.36667
041949293	Sarasota, Fla.	27.33643	-82.530649
041948939	Windsbach	49.24786	10.82651
04194822X	Schönkirchen	54.333329	10.23333
04194738X	Berlin- Prenzlauer Berg	52.551279	13.423429
041946618	Gottlieben	47.663888	9.133611
041936876	West Chester, Pa.	39.960659	-75.60549
041930770	Ravello	40.64932	14.61167
041929616	Shreveport, La.	32.525149	-93.75018
041927265	Ostslowakisches Gebiet	48.66667	19.5
041926404	Irkutsk	52.29778	104.29639
041925467	Stillwater, Okla.	36.115609	-97.058369
041923936	Kerkira	39.619999	19.91972
041921860	Yokohama	35.433333	139.65
041920406	Stirling	56.11903	-3.93682
041920368	Plaue	50.77835	10.899689
041917952	Neustadt an der Orla	50.736388	11.746111
041411234	Gainesville, Fla.	29.65163	-82.32483
041408705	Palm Springs, Calif.	33.8303	-116.545289
041408128	Wittmund-Carolinensiel	53.69062	7.8013
04140811X	Bournemouth	50.72048	-1.8795
041407199	Worphausen	53.18301	8.94322
041406702	Harrogate	53.99078	-1.5373
041405595	Waterloo$gOntario	49.25014	-84.49983
041402898	Zeist	52.09	5.233329
041396499	Ammerbuch	48.553429	8.972179
041387090	Oberthal	49.516669	7.099999
04138296X	Louisville, Ky.	38.25424	-85.75941
041381904	Böhl-Iggelheim	49.38056	8.30389
041380886	Berlin-Friedenau	52.471111	13.328055
041379284	Küsnacht$gKanton Zürich	47.318055	8.583888
041371739	Buda	47.5	19.033333
041371720	Pest$gStadt	47.5	19.083333
041362403	Ohrdruf-Gräfenhain	50.81667	10.699999
041359550	Kamp-Lintfort	51.504669	6.54588
041356136	Stollberg/Erzgeb.	50.71	12.780277
041354419	Auernheim$gNattheim	48.72986	10.294729
041341260	Lancaster$gLancashire	54.06667	-2.83333
041333292	Neuhausen am Rheinfall	47.685555	8.614722
041332210	Oleśnica	51.213333	17.383888
041322363	Lahti	60.982669	25.661509
041320182	Gütersloh	51.90693	8.378539
041319044	Seedorf$gDunningen	48.249079	8.489929
041318978	Rückersdorf$gLandkreis Nürnberger Land	49.49757	11.24751
041313844	Storrs, Conn.	41.80843	-72.24952
041313380	Malibu Beach, Calif.	34.032789	-118.688419
041306112	Wilmington, Del.	39.74595	-75.546589
041306007	Rochester, NY	43.15478	-77.61556
04130599X	Neukirchen-Vluyn	51.783329	6.4
041299329	Thaur	47.299999	11.46667
041295056	Lübbenau, Spreewald	51.861944	13.951666
041294874	Bergen-Belsen	52.783333	9.930555
041289447	Iowa City, Iowa	41.66113	-91.530169
041286030	Aalborg	57.048	9.918699
041284798	Palaiseau	48.71667	2.25
041280679	Niederorschel	51.366669	10.433329
041279166	Manhattan, Kan.	39.18361	-96.571669
041278488	Langenzersdorf	48.299999	16.35
04127847X	La Paz	-16.5	-68.15
041277937	München	48.137222	11.575277
041275837	Siebenlehn	51.031109	13.30808
041269608	Boulder, Colo.	40.014989	-105.27055
041268962	Langenau$gAlb-Donau-Kreis	48.496111	10.118333
04126584X	Dom Aachen$gAachen	50.776388	6.083333
041265289	Garsten	48.022399	14.40747
041264282	Bad Liebenzell	48.77427	8.72971
041261046	Nagoya	33.533329	129.88333
041253027	Kahla (Thür)	50.80651	11.58516
041241150	Santa Fe, NM	35.686979	-105.937799
04124107X	San Antonio, Tex.	29.424119	-98.493629
041238613	Villingen-Schwenningen-Obereschach	48.06226	8.493579
041235886	Kuks	50.40151	15.889379
041233980	Honolulu, Hawaii	21.306944	-157.858333
041233476	Haseldorf	53.616669	9.599999
041227395	Tscheljabinsk	55.15402	61.429149
041227239	Santiago de Chile	-33.45694	-70.648269
041227204	Rostow am Don	47.231111	39.723055
041226682	Aix-les-Bains	45.683379	5.92241
041226615	Vöhl	51.205649	8.9451
041226518	Tampa, Fla.	27.94752	-82.45843
041226488	Stellenbosch	-33.93462	18.866759
041226275	Recife	-8.05389	-34.881109
041225996	La Laguna, Teneriffa	28.485299	-16.320139
041220218	Seoul	37.56826	126.977829
041220129	Ottawa	45.411111	-75.698055
041208803	Amherst, Mass.	42.380369	-72.523139
041204107	England$zSüdwest	52.160449	-0.70312
041200780	Troy, NY	42.728409	-73.691789
041200640	Thüngen	49.9414	9.858599
041200578	Swarthmore, Pa.	39.902059	-75.349909
041200160	Scheveningen	52.10461	4.27557
041199715	Poughkeepsie, NY	41.700369	-73.920969
041199707	Phoenix, Ariz.	33.44838	-112.074039
041199650	Orlando, Fla.	28.53834	-81.379239
041199405	Middletown, Conn.	41.562319	-72.650649
041197542	Turnhout	51.322539	4.944709
041197356	Tucson, Ariz.	32.221739	-110.926479
041197054	Schwalmstadt-Treysa	50.91205	9.1843
041196546	Tomsk	56.497709	84.974369
041196376	Todi	42.77994	12.40456
041196058	Thurgau	47.583329	9.25
041195728	Teterow	53.775449	12.57487
041195574	Tennessee	35.750349	-86.25027
041195469	Telfs	47.299999	11.06667
041195450	Tel Aviv	32.08088	34.780569
041195116	Tanna	50.494599	11.85725
041195027	Tallahassee, Fla.	30.438259	-84.28073
041194640	Vlotho	52.1653	8.859959
041194594	Vittorio Veneto	45.976669	12.30333
041194446	Villmar	50.38333	8.199999
041194225	Vienne	45.516669	4.86667
041194136	Viareggio	43.873539	10.2558
041193997	Vercelli	45.323059	8.41533
041193814	Velden$gLandkreis Landshut	48.366111	12.255833
041193709	Varese	45.829079	8.82193
041193644	Vancouver$gBritish Columbia	49.249444	-123.119166
041193555	Valladolid	41.65518	-4.72372
041193369	Värmland	60.833329	16.5
041193164	Urbino	43.72621	12.636329
041192745	Zwolle	52.5125	6.094439
041192575	Züllichau	52.08362	15.62513
041192508	Znojmo	48.855499	16.048799
041192486	Zirl	47.283329	11.23333
041192273	Zella-Mehlis	50.656419	10.66046
041191870	Wurzen	51.370699	12.73938
041191773	Elze-Wülfingen	52.151839	9.741529
041191692	Worcester	52.189349	-2.220009
041191676	Wolverhampton	52.58547	-2.122959
04119165X	Wolnzach	48.603799	11.625679
041191358	Wisconsin	44.500239	-90.1
041191307	Wińsko	51.47032	16.6139
041191242	Winnipeg	49.884399	-97.14704
041191226	Windsor$gOntario	49.25014	-84.49983
041191218	Windischgarsten	47.72223	14.32755
041190947	Büren-Wewelsburg	51.605969	8.652939
041190785	West Point, NY	41.39148	-73.955969
041190718	Wertingen	48.563055	10.681388
04119067X	Vršac	45.116669	21.303609
041190572	Werdohl	51.260109	7.766079
041190432	Wells	51.20794	-2.64896
041190424	Wellington	-41.286388	174.775555
041190327	Weisendorf	49.62283	10.82531
041190122	Weida	50.77449	12.06028
041190017	Wattens	47.283329	11.599999
041189957	Washington	47.50012	-120.501469
041189892	Varaždin	46.304439	16.337779
041189809	Waltham, Mass.	42.376489	-71.235609
041189760	Walsdorf$gLandkreis Bamberg	49.866669	10.783329
041189736	Wallerstein	48.887419	10.47591
041189620	Waldenburg$gBasel-Landschaft	47.41667	7.75
041189612	Waldenburg$gSchlesien	50.771388	16.284166
041189299	Swindon	51.557969	-1.78116
041189159	Sussex	50.91667	-0.08333
041188330	Stolp	54.46405	17.028719
041188322	Stolberg/Harz	51.574166	10.955555
041187784	Stäfa	47.2425	8.723333
041187709	Springfield, Ill.	39.80172	-89.643709
041187466	Southampton	50.90395	-1.40428
041187229	Sombor	45.774169	19.11222
041186680	Simrishamn	55.55653	14.350369
04118632X	Siegsdorf	47.93072	12.298049
041186176	Sheffield	53.38297	-1.4659
041185749	Selbitz	50.317019	11.750189
041185692	Sehnde	52.31394	9.968199
041185412	Schwetz an der Weichsel	53.409529	18.44742
04118470X	Wörth am Rhein- Schaidt	49.059939	8.08206
041184599	Savona	44.309049	8.477149
041184440	Sassari	40.72722	8.56028
041184343	Saratow	51.540559	46.008609
041184009	Santa Barbara, Calif.	34.42083	-119.698189
041183894	Riedlhütte	48.90704	13.382379
041183630	St. Andrä$gKärnten	46.75	13.83333
041183479	San Remo	43.81725	7.777199
041183215	San Carlos de Bariloche	-41.145569	-71.30822
041182952	Salt Lake City, Utah	40.760779	-111.89105
041182863	Salisbury	51.06931	-1.79569
041182812	Salamanca	40.96882	-5.663879
041182278	Saint Paul, Minn.	44.944166	-93.093055
041182235	Saint Louis, Mo.	38.62727	-90.19789
041182022	Sacramento, Calif.	38.581569	-121.494399
041179633	Oakland, Calif.	37.804369	-122.270799
041179293	Nottingham	52.9536	-1.15047
041179242	Northampton	52.25	-0.88333
041178955	Nittendorf	49.02459	11.961259
041178904	Nîmes	43.833329	4.349999
041178750	Niederviehbach	48.616669	12.38333
041178602	Newcastle-upon-Tyne	54.97328	-1.61396
041178548	New Haven, Conn.	41.308055	-72.928055
041178513	Newcastle-under-Lyme	53.0	-2.23333
041178505	Neuzelle	52.090159	14.64804
041178416	Neusohl	48.73946	19.15349
041177940	Neckarelz	49.33966	9.106889
041177630	Namur	50.4669	4.86746
041177487	Mutterstadt$gRhein-Pfalz-Kreis	49.441389	8.356109
041177479	Mutters	47.23333	11.38333
041172728	Udine	46.061939	13.242219
041172612	Tulsa, Okla.	36.153979	-95.992779
041171667	Tarbes	43.23333	0.08333
041171314	Rovigo	45.079979	11.79301
041171012	Roßtal	49.39567	10.888479
041171004	Roßleben-Wiehe-Roßleben	51.298859	11.43435
041170709	Roeselare	50.94653	3.122689
041170474	Rjasan	54.626899	39.6916
041170199	Rijswijk	52.03634	4.325009
041170067	Richmond, Va.	37.553611	-77.46
041169697	Reus	41.15612	1.10687
041169654	Rennes	48.11198	-1.67429
041169433	Reggio nell'Emilia	44.69825	10.631249
041169220	Reading	51.456249	-0.97113
041169190	Rauris	47.226559	12.99459
041168895	Radibor	51.24481	14.398419
041168836	Quito	-0.22985	-78.52495
04116850X	Oviedo	43.360289	-5.84476
041168402	Oulu	65.01236	25.46816
041168259	Otterfing	47.908979	11.675459
041168224	Ottenhofen$gErding	48.21667	11.88333
041168054	Ostende	51.22339	2.911849
041167953	Orvieto	42.719529	12.11156
041167937	Ortenburg	48.545969	13.2225
041167902	Orsingen-Nenzingen	47.833329	8.96667
041167856	Orléans	47.902777	1.903888
041167538	Oldenburg-Osternburg	53.116669	8.25
041167309	Oettingen i. Bay.	48.9525	10.604444
041167228	Oderzo	45.78	12.48806
041167198	Odense	55.39594	10.38831
041167163	Ochsenhausen	48.070289	9.9503
041167139	Obing	48.899999	12.405279
041166906	Oberlin, Ohio	41.293939	-82.21738
041166787	Oberaudorf	47.64822	12.17242
041163508	Sayda$gMittelsachsen	50.71123	13.42172
041163230	Sankt Märgen	48.00804	8.092829
041163117	Saint-Germain-en-Laye	48.899999	2.08333
041161254	Pueblo, Colo.	38.254449	-104.609139
041160983	Pretoria	-25.744859	28.18783
041160975	Preston$gLancashire	53.766669	-2.71667
041160703	Portogruaro	45.77528	12.838609
041160657	Portici	40.815629	14.33716
041160487	Poppenhausen$gSchweinfurt	50.099989	10.14244
041160282	Poltawa	49.59373	34.54073
041159918	Plattling	48.77866	12.87509
041159802	Pistoia	43.92125	10.92361
041159160	Peterborough$gCambridgeshire	52.573639	-0.24777
041159128	Pesaro	43.90357	12.890259
041158679	Patras	38.244439	21.734439
041158563	Parma	44.799444	10.326111
041158350	Pamplona	42.81687	-1.64323
041158334	Palma de Mallorca	39.569389	2.65024
041155777	Pocking	48.40149	13.31315
04115567X	Pittsburgh, Pa.	40.44062	-79.99589
041154762	Osterhofen	48.7	13.022209
041154134	Northridge, Calif.	34.22834	-118.536749
041153812	Newark, NJ	40.735555	-74.172222
041153790	New Brunswick, NJ	40.48622	-74.451819
041152913	Murcia	37.98704	-1.130039
041152905	Mupperg	50.29236	11.150779
041152255	Monza	45.582479	9.27485
04115214X	Montevideo	-34.83346	-56.167349
041152123	Monterrey	25.666669	-100.31667
041152115	Montepulciano	43.101739	11.786839
04115195X	Mons$gHennegau	50.454129	3.95229
041151704	Modena	44.647829	10.92539
041151593	Mirecourt	48.30089	6.132819
041151550	Milwaukee, Wis.	43.038899	-87.906469
041151437	Middlesex	51.5	-0.41667
041151429	Middelburg	51.5	3.61389
041151399	Michigan	44.250289	-85.50033
041151240	Metelen	52.144339	7.212699
041151100	Merseyside	53.399999	-3.08333
04115097X	Mendoza	-32.890839	-68.827169
041150929	Memphis, Tenn.	35.149529	-90.04898
041150619	Medellin	6.251839	-75.56359
041150112	Marktoberdorf	47.77964	10.617129
041149947	Maria Enzersdorf	48.1	16.283329
041149785	Mantua	45.16031	10.79784
041149513	Malmö	55.60587	13.3
041149424	Malatya	38.35	38.316666
041149165	Maidbronn	49.84702	9.974199
041149009	Madison, Wis.	43.07305	-89.401229
04114631X	Montreux	46.433055	6.911388
041146034	Milton Keynes	52.041719	-0.75583
041145658	Menen	50.79722	3.12245
041145429	Medford, Mass.	42.41843	-71.10616
041144430	London$gOntario	49.25014	-84.49983
041144317	Livorno	43.542639	10.316
041144236	Lincoln, Neb.	40.799999	-96.66696
041144228	Lincoln	53.226829	-0.53792
04114418X	Lille	50.63297	3.05858
041144104	Libau	56.516669	21.01667
041143698	Lawrence, Kan.	38.97167	-95.235249
041143116	Kreuth	47.640833	11.744722
04114211X	Kissing	48.30375	10.970879
041141970	Kingston$gOntario	44.229759	-76.48098
041139968	Immenstadt i. Allgäu	47.559959	10.213939
041139267	Hobart$gTasmanien	-42.879359	147.329409
041138406	Hamborn	51.483333	6.766666
041136276	Schmallenberg- Bad Fredeburg	51.15473	8.28505
041127137	Bergedorf	53.484444	10.228888
041127056	Bellingham, Wash.	48.759549	-122.488219
041114388	Luton	51.879669	-0.41748
04111437X	Lustenau	47.42642	9.658509
041114175	Lübben (Spreewald)	51.938055	13.888055
041114132	Ludwigslust	53.32916	11.497139
041113918	Loreto	43.43536	13.60978
041113586	Logroño	42.25	-2.5
041113519	Lößnitz	50.62181	12.731469
04111325X	Linköping	58.410859	15.62157
041113144	Limburgerhof	49.424439	8.391939
041112660	Lérida	41.616669	0.61667
04111261X	Bad Leonfelden	48.532919	14.296649
041112598	Lenzkirch	47.868319	8.202109
041112520	Leisnig	51.15744	12.927899
041112474	Leiferde	52.439444	10.434444
041112423	Leicester	52.638599	-1.13169
041112415	Lehrte	52.37539	9.97155
041112393	Le Havre	49.4938	0.10767
041112342	Leeds	53.79648	-1.54785
041112156	Laon	49.56667	3.61667
041112059	Langenberg$gKreis Gütersloh	51.771944	8.318055
041111915	Lamstedt	53.63333	9.099999
041111834	Lagos	6.453059	3.39583
041111710	La Spezia	44.11054	9.843389
041104048	Kuala Lumpur	3.141111	101.686388
